,business_id,business_name,business_address,business_city,business_state,business_postal_code,business_latitude,business_longitude,business_location,business_phone_number,inspection_id,inspection_date,inspection_score,inspection_type,violation_id,violation_description,risk_category,Neighborhoods,Police Districts,Supervisor Districts,Fire Prevention Districts,Zip Codes,Analysis Neighborhoods
9671,3838,CAFE PICARO,3120 16th St,San Francisco,CA,94103,37.764908,-122.422442,"{'longitude': '-122.422442', 'latitude': '37.764908', 'human_address': '{""address"": """", ""city"": """", ""state"": """", ""zip"": """"}'}",14155434089.0,3838_20180222,2018-02-22T00:00:00.000,72.0,Routine - Unscheduled,3838_20180222_103142,Unclean nonfood contact surfaces,Low Risk,19.0,4.0,5.0,8.0,28853.0,20.0
9679,63619,Subway Sandwiches,77 Van Ness Ave #100,San Francisco,CA,94102,37.776133,-122.419484,"{'longitude': '-122.419484', 'latitude': '37.776133', 'human_address': '{""address"": """", ""city"": """", ""state"": """", ""zip"": """"}'}",14155981866.0,63619_20170919,2017-09-19T00:00:00.000,92.0,Routine - Unscheduled,63619_20170919_103154,Unclean or degraded floors walls or ceilings,Low Risk,36.0,9.0,9.0,7.0,28852.0,36.0
9695,7786,DIANDA'S ITAL-AMER.PASTRY CO.,2883 Mission St,San Francisco,CA,94110,37.750959,-122.418264,"{'longitude': '-122.418264', 'latitude': '37.750959', 'human_address': '{""address"": """", ""city"": """", ""state"": """", ""zip"": """"}'}",14155645469.0,7786_20171018,2017-10-18T00:00:00.000,85.0,Routine - Unscheduled,7786_20171018_103129,Insufficient hot water or running water,Moderate Risk,19.0,4.0,7.0,2.0,28859.0,20.0
9707,1635,KEZAR PUB,770 Stanyan St,San Francisco,CA,94117,37.767828,-122.453227,"{'longitude': '-122.453227', 'latitude': '37.767828', 'human_address': '{""address"": """", ""city"": """", ""state"": """", ""zip"": """"}'}",14155389292.0,1635_20171215,2017-12-15T00:00:00.000,91.0,Routine - Unscheduled,1635_20171215_103114,High risk vermin infestation,High Risk,9.0,5.0,11.0,15.0,29492.0,3.0
9708,64379,Piccadilly Fish & Chips,1348 Polk St,San Francisco,CA,94109,37.789299,-122.420352,"{'longitude': '-122.420352', 'latitude': '37.789299', 'human_address': '{""address"": """", ""city"": """", ""state"": """", ""zip"": """"}'}",14155776477.0,64379_20161024,2016-10-24T00:00:00.000,90.0,Routine - Unscheduled,64379_20161024_103161,Low risk vermin infestation,Low Risk,21.0,9.0,10.0,13.0,28858.0,21.0
9718,7645,LUCKY PORK MARKET,2659 MISSION St,San Francisco,CA,94110,37.754513,-122.418626,"{'longitude': '-122.418626', 'latitude': '37.754513', 'human_address': '{""address"": """", ""city"": """", ""state"": """", ""zip"": """"}'}",14155644805.0,7645_20181023,2018-10-23T00:00:00.000,86.0,Routine - Unscheduled,7645_20181023_103120,Moderate risk food holding temperature,Moderate Risk,19.0,4.0,7.0,2.0,28859.0,20.0
9721,69769,Whole Foods Market,1150 Ocean Ave,San Francisco,CA,94112,37.723652,-122.45461,"{'longitude': '-122.45461', 'latitude': '37.723652', 'human_address': '{""address"": """", ""city"": """", ""state"": """", ""zip"": """"}'}",14155337400.0,69769_20180725,2018-07-25T00:00:00.000,90.0,Routine - Unscheduled,69769_20180725_103144,Unapproved or unmaintained equipment or utensils,Low Risk,40.0,8.0,4.0,9.0,28861.0,41.0
9726,5955,SF CHRISTIAN DAY SCHOOL,25 WHITTIER St,San Francisco,CA,94112,37.709896,-122.448082,"{'longitude': '-122.448082', 'latitude': '37.709896', 'human_address': '{""address"": """", ""city"": """", ""state"": """", ""zip"": """"}'}",14155581117.0,5955_20190214,2019-02-14T00:00:00.000,96.0,Routine - Unscheduled,5955_20190214_103156,Permit license or inspection report not posted,Low Risk,5.0,7.0,6.0,9.0,28861.0,7.0
9730,5998,CENTRO LATINO DE SAN FRANCISCO,1656 15th St,San Francisco,CA,94103,37.766618,-122.421263,"{'longitude': '-122.421263', 'latitude': '37.766618', 'human_address': '{""address"": """", ""city"": """", ""state"": """", ""zip"": """"}'}",14155868758.0,5998_20180409,2018-04-09T00:00:00.000,86.0,Routine - Unscheduled,5998_20180409_103123,Food in poor condition,Moderate Risk,19.0,4.0,7.0,8.0,28853.0,20.0
9739,2359,LA TRAVIATA,2854 MISSION St,San Francisco,CA,94110,37.751296,-122.418414,"{'longitude': '-122.418414', 'latitude': '37.751296', 'human_address': '{""address"": """", ""city"": """", ""state"": """", ""zip"": """"}'}",14155280500.0,2359_20170706,2017-07-06T00:00:00.000,62.0,Routine - Unscheduled,2359_20170706_103153,Inadequate dressing rooms or improper storage of personal items,Low Risk,19.0,4.0,7.0,2.0,28859.0,20.0
9740,68560,Wow Naan-N-Curry,642 Irving St,San Francisco,CA,94122,37.764128,-122.464961,"{'longitude': '-122.464961', 'latitude': '37.764128', 'human_address': '{""address"": """", ""city"": """", ""state"": """", ""zip"": """"}'}",14155667225.0,68560_20180316,2018-03-16T00:00:00.000,90.0,Routine - Unscheduled,68560_20180316_103157,Food safety certificate or food handler card not available,Low Risk,12.0,8.0,11.0,11.0,56.0,14.0
9754,1003,RINCON PERUANO RESTAURANT,3364 26th St,San Francisco,CA,94110,37.749128,-122.417402,"{'longitude': '-122.417402', 'latitude': '37.749128', 'human_address': '{""address"": """", ""city"": """", ""state"": """", ""zip"": """"}'}",14155897712.0,1003_20160706,2016-07-06T00:00:00.000,88.0,Routine - Unscheduled,1003_20160706_103153,Inadequate dressing rooms or improper storage of personal items,Low Risk,19.0,4.0,7.0,2.0,28859.0,20.0
9770,27799,Buckhorn Grill,845 Market St FE-5,San Francisco,CA,94103,37.784848,-122.406892,"{'longitude': '-122.406892', 'latitude': '37.784848', 'human_address': '{""address"": """", ""city"": """", ""state"": """", ""zip"": """"}'}",14155979770.0,27799_20160711,2016-07-11T00:00:00.000,87.0,Routine - Unscheduled,27799_20160711_103131,Moderate risk vermin infestation,Moderate Risk,34.0,2.0,9.0,12.0,28853.0,34.0
9771,3252,LITTLE JOES PIZZA REST.,5006 MISSION St,San Francisco,CA,94112,37.718359,-122.439655,"{'longitude': '-122.439655', 'latitude': '37.718359', 'human_address': '{""address"": """", ""city"": """", ""state"": """", ""zip"": """"}'}",14155333684.0,3252_20160725,2016-07-25T00:00:00.000,86.0,Routine - Unscheduled,3252_20160725_103119,Inadequate and inaccessible handwashing facilities,Moderate Risk,25.0,7.0,6.0,9.0,28861.0,28.0
9785,2002,PANDA EXPRESS,3251 20th Ave 250H,San Francisco,CA,94132,37.728497,-122.475639,"{'longitude': '-122.475639', 'latitude': '37.728497', 'human_address': '{""address"": """", ""city"": """", ""state"": """", ""zip"": """"}'}",14155731403.0,2002_20160914,2016-09-14T00:00:00.000,98.0,Routine - Unscheduled,2002_20160914_103144,Unapproved or unmaintained equipment or utensils,Low Risk,14.0,8.0,4.0,1.0,64.0,16.0
9786,591,YOU SEE SUSHI,94 JUDAH St,San Francisco,CA,94122,37.762378,-122.462692,"{'longitude': '-122.462692', 'latitude': '37.762378', 'human_address': '{""address"": """", ""city"": """", ""state"": """", ""zip"": """"}'}",14155684010.0,591_20180206,2018-02-06T00:00:00.000,89.0,Routine - Unscheduled,591_20180206_103102,Unclean hands or improper use of gloves,High Risk,12.0,5.0,11.0,1.0,56.0,14.0
9789,2347,LAS TINAJAS,2338 MISSION St,San Francisco,CA,94110,37.759567,-122.419185,"{'longitude': '-122.419185', 'latitude': '37.759567', 'human_address': '{""address"": """", ""city"": """", ""state"": """", ""zip"": """"}'}",14155699933.0,2347_20181107,2018-11-07T00:00:00.000,86.0,Routine - Unscheduled,2347_20181107_103119,Inadequate and inaccessible handwashing facilities,Moderate Risk,19.0,4.0,7.0,2.0,28859.0,20.0
9796,62578,New Chef Hung's Restaurant,823 Clay St,San Francisco,CA,94108,37.794193,-122.406677,"{'longitude': '-122.406677', 'latitude': '37.794193', 'human_address': '{""address"": """", ""city"": """", ""state"": """", ""zip"": """"}'}",14155396883.0,62578_20181130,2018-11-30T00:00:00.000,73.0,Routine - Unscheduled,62578_20181130_103124,Inadequately cleaned or sanitized food contact surfaces,Moderate Risk,4.0,1.0,10.0,3.0,28857.0,6.0
9801,7678,Casa Thai Market,3020 16th St,San Francisco,CA,94103,37.765049,-122.420122,"{'longitude': '-122.420122', 'latitude': '37.765049', 'human_address': '{""address"": """", ""city"": """", ""state"": """", ""zip"": """"}'}",14155433562.0,7678_20180212,2018-02-12T00:00:00.000,83.0,Routine - Unscheduled,7678_20180212_103133,Foods not protected from contamination,Moderate Risk,19.0,4.0,7.0,8.0,28853.0,20.0
9865,1154,SUNFLOWER RESTAURANT,506 Valencia St,San Francisco,CA,94103,37.764678,-122.421905,"{'longitude': '-122.421905', 'latitude': '37.764678', 'human_address': '{""address"": """", ""city"": """", ""state"": """", ""zip"": """"}'}",14155625023.0,1154_20160912,2016-09-12T00:00:00.000,76.0,Routine - Unscheduled,1154_20160912_103119,Inadequate and inaccessible handwashing facilities,Moderate Risk,19.0,4.0,5.0,8.0,28859.0,20.0
9879,7689,UNOCAL 76  PACIFIC ENTERPRISES,999 OCEAN Ave,San Francisco,CA,94112,37.723133,-122.452707,"{'longitude': '-122.452707', 'latitude': '37.723133', 'human_address': '{""address"": """", ""city"": """", ""state"": """", ""zip"": """"}'}",14155588296.0,7689_20190425,2019-04-25T00:00:00.000,96.0,Routine - Unscheduled,7689_20190425_103119,Inadequate and inaccessible handwashing facilities,Moderate Risk,24.0,8.0,4.0,9.0,28861.0,24.0
9910,1426,SWEET DELIGHT BAKERY,4476A MISSION,San Francisco,CA,94112,37.726117,-122.433817,"{'longitude': '-122.433817', 'latitude': '37.726117', 'human_address': '{""address"": """", ""city"": """", ""state"": """", ""zip"": """"}'}",14155336786.0,1426_20161026,2016-10-26T00:00:00.000,70.0,Routine - Unscheduled,1426_20161026_103103,High risk food holding temperature,High Risk,25.0,7.0,6.0,9.0,28861.0,28.0
9951,1926,LINCOLN PARK BAR AND GRILL,300 34th Ave,San Francisco,CA,94121,37.782971,-122.496324,"{'longitude': '-122.496324', 'latitude': '37.782971', 'human_address': '{""address"": """", ""city"": """", ""state"": """", ""zip"": """"}'}",14155222254.0,1926_20171013,2017-10-13T00:00:00.000,84.0,Routine - Unscheduled,1926_20171013_103161,Low risk vermin infestation,Low Risk,15.0,6.0,2.0,11.0,55.0,17.0
9974,2627,BURGERMEISTER,138 Church St,San Francisco,CA,94114,37.768776,-122.429095,"{'longitude': '-122.429095', 'latitude': '37.768776', 'human_address': '{""address"": """", ""city"": """", ""state"": """", ""zip"": """"}'}",14155432874.0,2627_20180530,2018-05-30T00:00:00.000,89.0,Routine - Unscheduled,2627_20180530_103119,Inadequate and inaccessible handwashing facilities,Moderate Risk,3.0,9.0,5.0,7.0,28862.0,5.0
9978,5805,ORTEGA ELEMENTARY SCHOOL,400 Sargent St,San Francisco,CA,94132,37.716156,-122.466248,"{'longitude': '-122.466248', 'latitude': '37.716156', 'human_address': '{""address"": """", ""city"": """", ""state"": """", ""zip"": """"}'}",14155464726.0,5805_20170202,2017-02-02T00:00:00.000,96.0,Routine - Unscheduled,5805_20170202_103129,Insufficient hot water or running water,Moderate Risk,24.0,8.0,6.0,9.0,64.0,24.0
9982,37060,Halu,312 08th Ave,San Francisco,CA,94118,37.782576,-122.46648,"{'longitude': '-122.46648', 'latitude': '37.782576', 'human_address': '{""address"": """", ""city"": """", ""state"": """", ""zip"": """"}'}",14155229165.0,37060_20190507,2019-05-07T00:00:00.000,85.0,Routine - Unscheduled,37060_20190507_103109,Unclean or unsanitary food contact surfaces,High Risk,11.0,6.0,2.0,11.0,54.0,11.0
9987,146,DEJA VU PIZZA & PASTA,3227 16th St,San Francisco,CA,94103,37.764713,-122.424709,"{'longitude': '-122.424709', 'latitude': '37.764713', 'human_address': '{""address"": """", ""city"": """", ""state"": """", ""zip"": """"}'}",14155251600.0,146_20161017,2016-10-17T00:00:00.000,84.0,Routine - Unscheduled,146_20161017_103120,Moderate risk food holding temperature,Moderate Risk,19.0,4.0,5.0,8.0,28859.0,20.0
9989,37090,Basil Canteen,1489 FOLSOM St,San Francisco,CA,94103,37.772008,-122.413803,"{'longitude': '-122.413803', 'latitude': '37.772008', 'human_address': '{""address"": """", ""city"": """", ""state"": """", ""zip"": """"}'}",14155553963.0,37090_20170629,2017-06-29T00:00:00.000,71.0,Routine - Unscheduled,37090_20170629_103133,Foods not protected from contamination,Moderate Risk,34.0,2.0,9.0,8.0,28853.0,34.0
9994,1021,LA SANTANECA DE LA MISSION,2815 MISSION St,San Francisco,CA,94110,37.751885,-122.418406,"{'longitude': '-122.418406', 'latitude': '37.751885', 'human_address': '{""address"": """", ""city"": """", ""state"": """", ""zip"": """"}'}",14155282131.0,1021_20170912,2017-09-12T00:00:00.000,90.0,Routine - Unscheduled,1021_20170912_103157,Food safety certificate or food handler card not available,Low Risk,19.0,4.0,7.0,2.0,28859.0,20.0
10008,2750,HAMANO SUSHI,1332 CASTRO St,San Francisco,CA,94114,37.750778,-122.434065,"{'longitude': '-122.434065', 'latitude': '37.750778', 'human_address': '{""address"": """", ""city"": """", ""state"": """", ""zip"": """"}'}",14155820825.0,2750_20170823,2017-08-23T00:00:00.000,84.0,Routine - Unscheduled,2750_20170823_103127,Noncompliance with HAACP plan or variance,Moderate Risk,22.0,4.0,5.0,2.0,28862.0,22.0
10014,19357,Original Buffalo Wings,2499 Lombard St,San Francisco,CA,94123,37.799095,-122.442457,"{'longitude': '-122.442457', 'latitude': '37.799095', 'human_address': '{""address"": """", ""city"": """", ""state"": """", ""zip"": """"}'}",14155938181.0,19357_20180116,2018-01-16T00:00:00.000,69.0,Routine - Unscheduled,19357_20180116_103123,Food in poor condition,Moderate Risk,17.0,9.0,1.0,13.0,57.0,13.0
10031,66536,Cypress Grill,99 Harding Park Rd,San Francisco,CA,94132,37.723698,-122.495289,"{'longitude': '-122.495289', 'latitude': '37.723698', 'human_address': '{""address"": """", ""city"": """", ""state"": """", ""zip"": """"}'}",14155664690.0,66536_20170303,2017-03-03T00:00:00.000,90.0,Routine - Unscheduled,66536_20170303_103149,Wiping cloths not clean or properly stored or inadequate sanitizer,Low Risk,14.0,8.0,4.0,1.0,64.0,16.0
10041,4864,DRAGON CITY BAKERY & CAFE,2367 MISSION St,San Francisco,CA,94110,37.759174,-122.419066,"{'longitude': '-122.419066', 'latitude': '37.759174', 'human_address': '{""address"": """", ""city"": """", ""state"": """", ""zip"": """"}'}",14155829718.0,4864_20160602,2016-06-02T00:00:00.000,86.0,Routine - Unscheduled,4864_20160602_103133,Foods not protected from contamination,Moderate Risk,19.0,4.0,7.0,2.0,28859.0,20.0
10054,290,BISTRO AIX,3340 STEINER St,San Francisco,CA,94123,37.800187,-122.437756,"{'longitude': '-122.437756', 'latitude': '37.800187', 'human_address': '{""address"": """", ""city"": """", ""state"": """", ""zip"": """"}'}",14155200100.0,290_20160615,2016-06-15T00:00:00.000,89.0,Routine - Unscheduled,290_20160615_103114,High risk vermin infestation,High Risk,17.0,9.0,1.0,13.0,57.0,13.0
10066,4959,THAT'S IT MARKET,2699 Mission St,San Francisco,CA,94110,37.753973,-122.418576,"{'longitude': '-122.418576', 'latitude': '37.753973', 'human_address': '{""address"": """", ""city"": """", ""state"": """", ""zip"": """"}'}",14155289833.0,4959_20180718,2018-07-18T00:00:00.000,86.0,Routine - Unscheduled,4959_20180718_103153,Inadequate dressing rooms or improper storage of personal items,Low Risk,19.0,4.0,7.0,2.0,28859.0,20.0
10069,3221,PASQUALES,700 IRVING St,San Francisco,CA,94122,37.764108,-122.465512,"{'longitude': '-122.465512', 'latitude': '37.764108', 'human_address': '{""address"": """", ""city"": """", ""state"": """", ""zip"": """"}'}",14155662140.0,3221_20170627,2017-06-27T00:00:00.000,85.0,Routine - Unscheduled,3221_20170627_103149,Wiping cloths not clean or properly stored or inadequate sanitizer,Low Risk,12.0,8.0,11.0,11.0,56.0,14.0
10074,1081,ARINELL PIZZA,509 VALENCIA St,San Francisco,CA,94110,37.764744,-122.421803,"{'longitude': '-122.421803', 'latitude': '37.764744', 'human_address': '{""address"": """", ""city"": """", ""state"": """", ""zip"": """"}'}",14155251303.0,1081_20171106,2017-11-06T00:00:00.000,88.0,Routine - Unscheduled,1081_20171106_103131,Moderate risk vermin infestation,Moderate Risk,19.0,4.0,7.0,8.0,28859.0,20.0
10075,2627,BURGERMEISTER,138 Church St,San Francisco,CA,94114,37.768776,-122.429095,"{'longitude': '-122.429095', 'latitude': '37.768776', 'human_address': '{""address"": """", ""city"": """", ""state"": """", ""zip"": """"}'}",14155432874.0,2627_20170105,2017-01-05T00:00:00.000,86.0,Routine - Unscheduled,2627_20170105_103119,Inadequate and inaccessible handwashing facilities,Moderate Risk,3.0,9.0,5.0,7.0,28862.0,5.0
10077,5999,The Salvation Army,1156 Valencia St,San Francisco,CA,94110,37.754397,-122.420915,"{'longitude': '-122.420915', 'latitude': '37.754397', 'human_address': '{""address"": """", ""city"": """", ""state"": """", ""zip"": """"}'}",14155640260.0,5999_20180724,2018-07-24T00:00:00.000,90.0,Routine - Unscheduled,5999_20180724_103124,Inadequately cleaned or sanitized food contact surfaces,Moderate Risk,19.0,4.0,5.0,2.0,28859.0,20.0
10079,67187,Chipotle Mexican Grill #1560,333 Jefferson St #104,San Francisco,CA,94133,37.807923,-122.417887,"{'longitude': '-122.417887', 'latitude': '37.807923', 'human_address': '{""address"": """", ""city"": """", ""state"": """", ""zip"": """"}'}",14155503533.0,67187_20190117,2019-01-17T00:00:00.000,92.0,Routine - Unscheduled,67187_20190117_103144,Unapproved or unmaintained equipment or utensils,Low Risk,23.0,1.0,10.0,3.0,308.0,23.0
10081,13427,Extreme Pizza,3911 Alemany Bl.,San Francisco,CA,94132,37.711185,-122.46779,"{'longitude': '-122.46779', 'latitude': '37.711185', 'human_address': '{""address"": """", ""city"": """", ""state"": """", ""zip"": """"}'}",14150999800.0,13427_20180214,2018-02-14T00:00:00.000,94.0,Routine - Unscheduled,13427_20180214_103116,Inadequate food safety knowledge or lack of certified food safety manager,Moderate Risk,24.0,8.0,4.0,9.0,64.0,24.0
10082,4860,Play  Field Cafe,1 Zoo Rd,San Francisco,CA,94132,37.73017,-122.502535,"{'longitude': '-122.502535', 'latitude': '37.73017', 'human_address': '{""address"": """", ""city"": """", ""state"": """", ""zip"": """"}'}",14155757132.0,4860_20170411,2017-04-11T00:00:00.000,88.0,Routine - Unscheduled,4860_20170411_103119,Inadequate and inaccessible handwashing facilities,Moderate Risk,14.0,8.0,4.0,1.0,64.0,16.0
10083,6564,HWA LEI MARKET,2970 A 16th St,San Francisco,CA,94103,37.774722,-122.406761,"{'longitude': '-122.406761', 'latitude': '37.774722', 'human_address': '{""address"": """", ""city"": """", ""state"": """", ""zip"": """"}'}",14155861618.0,6564_20180522,2018-05-22T00:00:00.000,82.0,Routine - Unscheduled,6564_20180522_103124,Inadequately cleaned or sanitized food contact surfaces,Moderate Risk,34.0,2.0,9.0,14.0,28853.0,34.0
10084,1734,SAI JAI THAI,771 O'FARRELL St,San Francisco,CA,94109,37.785182,-122.417409,"{'longitude': '-122.417409', 'latitude': '37.785182', 'human_address': '{""address"": """", ""city"": """", ""state"": """", ""zip"": """"}'}",14155675774.0,1734_20190226,2019-02-26T00:00:00.000,70.0,Routine - Unscheduled,1734_20190226_103132,Improper thawing methods,Moderate Risk,36.0,10.0,9.0,7.0,28858.0,36.0
10089,61736,Rosamunde Sausage Grill,2832 MISSION St,San Francisco,CA,94110,37.751587,-122.418444,"{'longitude': '-122.418444', 'latitude': '37.751587', 'human_address': '{""address"": """", ""city"": """", ""state"": """", ""zip"": """"}'}",14155307170.0,61736_20180918,2018-09-18T00:00:00.000,92.0,Routine - Unscheduled,61736_20180918_103153,Inadequate dressing rooms or improper storage of personal items,Low Risk,19.0,4.0,7.0,2.0,28859.0,20.0
10091,5844,CLARENDON ELEMENTARY SCHOOL,500 CLARENDON Ave,San Francisco,CA,94131,37.751552,-122.456517,"{'longitude': '-122.456517', 'latitude': '37.751552', 'human_address': '{""address"": """", ""city"": """", ""state"": """", ""zip"": """"}'}",14155752796.0,5844_20170518,2017-05-18T00:00:00.000,91.0,Routine - Unscheduled,5844_20170518_103102,Unclean hands or improper use of gloves,High Risk,12.0,5.0,4.0,1.0,63.0,14.0
10094,69175,Mau Restaurant,665 Valencia St,San Francisco,CA,94110,37.762381,-122.42156,"{'longitude': '-122.42156', 'latitude': '37.762381', 'human_address': '{""address"": """", ""city"": """", ""state"": """", ""zip"": """"}'}",14155307517.0,69175_20170829,2017-08-29T00:00:00.000,76.0,Routine - Unscheduled,69175_20170829_103142,Unclean nonfood contact surfaces,Low Risk,19.0,4.0,7.0,8.0,28859.0,20.0
10102,61915,La Loma Produce Nos. 3 & 9 Inc,5652 MISSION St,San Francisco,CA,94112,37.710685,-122.447907,"{'longitude': '-122.447907', 'latitude': '37.710685', 'human_address': '{""address"": """", ""city"": """", ""state"": """", ""zip"": """"}'}",14155589254.0,61915_20190109,2019-01-09T00:00:00.000,83.0,Routine - Unscheduled,61915_20190109_103120,Moderate risk food holding temperature,Moderate Risk,25.0,7.0,6.0,9.0,28861.0,28.0
10106,64940,The Grove-Hayes,301 Hayes St,San Francisco,CA,94102,37.777026,-122.421361,"{'longitude': '-122.421361', 'latitude': '37.777026', 'human_address': '{""address"": """", ""city"": """", ""state"": """", ""zip"": """"}'}",14155623953.0,64940_20190109,2019-01-09T00:00:00.000,96.0,Routine - Unscheduled,64940_20190109_103120,Moderate risk food holding temperature,Moderate Risk,10.0,9.0,11.0,7.0,28852.0,9.0
10113,68909,Cafe La Flore,1340 Irving St,San Francisco,CA,94122,37.763798,-122.472422,"{'longitude': '-122.472422', 'latitude': '37.763798', 'human_address': '{""address"": """", ""city"": """", ""state"": """", ""zip"": """"}'}",14155756525.0,68909_20180327,2018-03-27T00:00:00.000,96.0,Routine - Unscheduled,68909_20180327_103133,Foods not protected from contamination,Moderate Risk,12.0,8.0,11.0,11.0,56.0,14.0
10125,3038,TURK & LARKIN DELI,476 TURK St,San Francisco,CA,94102,37.782458,-122.416873,"{'longitude': '-122.416873', 'latitude': '37.782458', 'human_address': '{""address"": """", ""city"": """", ""state"": """", ""zip"": """"}'}",14155776889.0,3038_20160620,2016-06-20T00:00:00.000,73.0,Routine - Unscheduled,3038_20160620_103114,High risk vermin infestation,High Risk,36.0,10.0,9.0,7.0,28852.0,36.0
10129,5955,SF CHRISTIAN DAY SCHOOL,25 WHITTIER St,San Francisco,CA,94112,37.709896,-122.448082,"{'longitude': '-122.448082', 'latitude': '37.709896', 'human_address': '{""address"": """", ""city"": """", ""state"": """", ""zip"": """"}'}",14155581117.0,5955_20181207,2018-12-07T00:00:00.000,92.0,Routine - Unscheduled,5955_20181207_103133,Foods not protected from contamination,Moderate Risk,5.0,7.0,6.0,9.0,28861.0,7.0
10130,3165,HAN IL KWAN,1802 BALBOA St,San Francisco,CA,94121,37.776599,-122.478292,"{'longitude': '-122.478292', 'latitude': '37.776599', 'human_address': '{""address"": """", ""city"": """", ""state"": """", ""zip"": """"}'}",14153598244.0,3165_20170323,2017-03-23T00:00:00.000,79.0,Routine - Unscheduled,3165_20170323_103142,Unclean nonfood contact surfaces,Low Risk,26.0,6.0,2.0,11.0,55.0,29.0
10134,4636,STARBUCKS COFFEE,3251 20th Ave,San Francisco,CA,94132,37.728497,-122.475639,"{'longitude': '-122.475639', 'latitude': '37.728497', 'human_address': '{""address"": """", ""city"": """", ""state"": """", ""zip"": """"}'}",14155664956.0,4636_20161214,2016-12-14T00:00:00.000,94.0,Routine - Unscheduled,4636_20161214_103154,Unclean or degraded floors walls or ceilings,Low Risk,14.0,8.0,4.0,1.0,64.0,16.0
10138,68773,Nopalito,1224 9th Ave,San Francisco,CA,94122,37.765412,-122.466375,"{'longitude': '-122.466375', 'latitude': '37.765412', 'human_address': '{""address"": """", ""city"": """", ""state"": """", ""zip"": """"}'}",14155430303.0,68773_20180214,2018-02-14T00:00:00.000,90.0,Routine - Unscheduled,68773_20180214_103161,Low risk vermin infestation,Low Risk,12.0,8.0,11.0,11.0,56.0,14.0
10139,5823,WEBSTER ELEMENTARY SCHOOL,465 MISSOURI St,San Francisco,CA,94107,37.760474,-122.396296,"{'longitude': '-122.396296', 'latitude': '37.760474', 'human_address': '{""address"": """", ""city"": """", ""state"": """", ""zip"": """"}'}",14155695787.0,5823_20180202,2018-02-02T00:00:00.000,93.0,Routine - Unscheduled,5823_20180202_103107,Improper reheating of food,High Risk,29.0,3.0,8.0,10.0,28856.0,26.0
10144,5835,Rosa Parks Elementary School,1501 O'Farrell St,San Francisco,CA,94115,37.783604,-122.430141,"{'longitude': '-122.430141', 'latitude': '37.783604', 'human_address': '{""address"": """", ""city"": """", ""state"": """", ""zip"": """"}'}",14155745519.0,5835_20171006,2017-10-06T00:00:00.000,96.0,Routine - Unscheduled,5835_20171006_103131,Moderate risk vermin infestation,Moderate Risk,41.0,9.0,11.0,13.0,29490.0,39.0
10145,36911,Royal Market & Bakery,5331 Geary Blvd,San Francisco,CA,94121,37.780383,-122.47673,"{'longitude': '-122.47673', 'latitude': '37.780383', 'human_address': '{""address"": """", ""city"": """", ""state"": """", ""zip"": """"}'}",14155225550.0,36911_20170919,2017-09-19T00:00:00.000,87.0,Routine - Unscheduled,36911_20170919_103132,Improper thawing methods,Moderate Risk,26.0,6.0,2.0,11.0,55.0,29.0
10155,5301,Tacos San Buena,2598 Harrison St,San Francisco,CA,94110,37.749851,-122.415121,"{'longitude': '-122.415121', 'latitude': '37.749851', 'human_address': '{""address"": """", ""city"": """", ""state"": """", ""zip"": """"}'}",14155550404.0,5301_20190304,2019-03-04T00:00:00.000,81.0,Routine - Unscheduled,5301_20190304_103156,Permit license or inspection report not posted,Low Risk,19.0,4.0,7.0,2.0,28859.0,20.0
10166,2397,PLOY #2 THAI CUISINE,1770 HAIGHT St,San Francisco,CA,94117,37.769458,-122.451354,"{'longitude': '-122.451354', 'latitude': '37.769458', 'human_address': '{""address"": """", ""city"": """", ""state"": """", ""zip"": """"}'}",14155389224.0,2397_20170301,2017-03-01T00:00:00.000,74.0,Routine - Unscheduled,2397_20170301_103144,Unapproved or unmaintained equipment or utensils,Low Risk,9.0,5.0,11.0,15.0,29492.0,3.0
10167,69282,New Jumbo Seafood Restaurant,1532 NORIEGA St,San Francisco,CA,94122,37.754132,-122.480058,"{'longitude': '-122.480058', 'latitude': '37.754132', 'human_address': '{""address"": """", ""city"": """", ""state"": """", ""zip"": """"}'}",14155681800.0,69282_20180417,2018-04-17T00:00:00.000,64.0,Routine - Unscheduled,69282_20180417_103144,Unapproved or unmaintained equipment or utensils,Low Risk,35.0,8.0,3.0,1.0,56.0,35.0
10172,5810,DENMAN MIDDLE SCHOOL,241 ONEIDA St,San Francisco,CA,94112,37.721825,-122.442876,"{'longitude': '-122.442876', 'latitude': '37.721825', 'human_address': '{""address"": """", ""city"": """", ""state"": """", ""zip"": """"}'}",14155464535.0,5810_20180206,2018-02-06T00:00:00.000,94.0,Routine - Unscheduled,5810_20180206_103131,Moderate risk vermin infestation,Moderate Risk,25.0,7.0,6.0,9.0,28861.0,28.0
10175,2632,MARTHA & BROS COFFEE CO,745 CORTLAND Ave,San Francisco,CA,94110,37.738927,-122.414757,"{'longitude': '-122.414757', 'latitude': '37.738927', 'human_address': '{""address"": """", ""city"": """", ""state"": """", ""zip"": """"}'}",14155647779.0,2632_20160729,2016-07-29T00:00:00.000,90.0,Routine - Unscheduled,2632_20160729_103154,Unclean or degraded floors walls or ceilings,Low Risk,2.0,7.0,7.0,2.0,28859.0,2.0
10178,2305,TIA MARGARITA INC,300 19th Ave,San Francisco,CA,94121,37.782124,-122.478425,"{'longitude': '-122.478425', 'latitude': '37.782124', 'human_address': '{""address"": """", ""city"": """", ""state"": """", ""zip"": """"}'}",14155759274.0,2305_20171102,2017-11-02T00:00:00.000,88.0,Routine - Unscheduled,2305_20171102_103120,Moderate risk food holding temperature,Moderate Risk,26.0,6.0,2.0,11.0,55.0,29.0
10180,2808,NEW EMMY'S RESTAURANT,1923 OCEAN Ave,San Francisco,CA,94127,37.725404,-122.462776,"{'longitude': '-122.462776', 'latitude': '37.725404', 'human_address': '{""address"": """", ""city"": """", ""state"": """", ""zip"": """"}'}",14155728615.0,2808_20190103,2019-01-03T00:00:00.000,74.0,Routine - Unscheduled,2808_20190103_103142,Unclean nonfood contact surfaces,Low Risk,40.0,8.0,4.0,9.0,59.0,41.0
10190,5071,CAFE-ROSSO,1600 HOLLOWAY Ave,San Francisco,CA,94132,37.720851,-122.477084,"{'longitude': '-122.477084', 'latitude': '37.720851', 'human_address': '{""address"": """", ""city"": """", ""state"": """", ""zip"": """"}'}",14155400923.0,5071_20190417,2019-04-17T00:00:00.000,98.0,Routine - Unscheduled,5071_20190417_103149,Wiping cloths not clean or properly stored or inadequate sanitizer,Low Risk,14.0,8.0,4.0,1.0,64.0,16.0
10192,7214,SUN FAT SEAFOOD,2687 MISSION St,San Francisco,CA,94110,37.754094,-122.418586,"{'longitude': '-122.418586', 'latitude': '37.754094', 'human_address': '{""address"": """", ""city"": """", ""state"": """", ""zip"": """"}'}",14155289339.0,7214_20171127,2017-11-27T00:00:00.000,87.0,Routine - Unscheduled,7214_20171127_103161,Low risk vermin infestation,Low Risk,19.0,4.0,7.0,2.0,28859.0,20.0
10193,7087,VALENCIA FARMER'S MARKET,1299 VALENCIA St,San Francisco,CA,94110,37.752162,-122.420585,"{'longitude': '-122.420585', 'latitude': '37.752162', 'human_address': '{""address"": """", ""city"": """", ""state"": """", ""zip"": """"}'}",14155286863.0,7087_20170817,2017-08-17T00:00:00.000,90.0,Routine - Unscheduled,7087_20170817_103119,Inadequate and inaccessible handwashing facilities,Moderate Risk,19.0,4.0,7.0,2.0,28859.0,20.0
10200,1596,BURGERMEISTER,86 Carl St,San Francisco,CA,94117,37.765848,-122.449664,"{'longitude': '-122.449664', 'latitude': '37.765848', 'human_address': '{""address"": """", ""city"": """", ""state"": """", ""zip"": """"}'}",14155564433.0,1596_20171201,2017-12-01T00:00:00.000,96.0,Routine - Unscheduled,1596_20171201_103144,Unapproved or unmaintained equipment or utensils,Low Risk,9.0,5.0,11.0,15.0,29492.0,3.0
10203,4804,SUBWAY #31419,2599 SAN BRUNO Ave,San Francisco,CA,94134,37.728933,-122.40413,"{'longitude': '-122.40413', 'latitude': '37.728933', 'human_address': '{""address"": """", ""city"": """", ""state"": """", ""zip"": """"}'}",14150540880.0,4804_20161206,2016-12-06T00:00:00.000,86.0,Routine - Unscheduled,4804_20161206_103150,Improper or defective plumbing,Low Risk,28.0,3.0,7.0,10.0,309.0,25.0
10208,2266,ALI BABA'S CAVE RESTAURANT,799 Valencia St,San Francisco,CA,94110,37.760164,-122.421334,"{'longitude': '-122.421334', 'latitude': '37.760164', 'human_address': '{""address"": """", ""city"": """", ""state"": """", ""zip"": """"}'}",14155863054.0,2266_20170724,2017-07-24T00:00:00.000,86.0,Routine - Unscheduled,2266_20170724_103121,Inadequate procedures or records for time as a public health control,Moderate Risk,19.0,4.0,7.0,2.0,28859.0,20.0
10210,24198,Olivo's Taqueria,1017 Larkin St,San Francisco,CA,94109,37.787288,-122.418389,"{'longitude': '-122.418389', 'latitude': '37.787288', 'human_address': '{""address"": """", ""city"": """", ""state"": """", ""zip"": """"}'}",14155933019.0,24198_20170912,2017-09-12T00:00:00.000,85.0,Routine - Unscheduled,24198_20170912_103124,Inadequately cleaned or sanitized food contact surfaces,Moderate Risk,21.0,9.0,10.0,13.0,28858.0,21.0
10213,70494,The Little Chihuahua Mexican Restaurant,581 VALENCIA St,San Francisco,CA,94110,37.763664,-122.421736,"{'longitude': '-122.421736', 'latitude': '37.763664', 'human_address': '{""address"": """", ""city"": """", ""state"": """", ""zip"": """"}'}",14155207111.0,70494_20181205,2018-12-05T00:00:00.000,94.0,Routine - Unscheduled,70494_20181205_103124,Inadequately cleaned or sanitized food contact surfaces,Moderate Risk,19.0,4.0,7.0,8.0,28859.0,20.0
10230,1362,RESTAURANTE FAMILIAR,4499 MISSION St,San Francisco,CA,94112,37.726402,-122.433476,"{'longitude': '-122.433476', 'latitude': '37.726402', 'human_address': '{""address"": """", ""city"": """", ""state"": """", ""zip"": """"}'}",14155336100.0,1362_20160720,2016-07-20T00:00:00.000,84.0,Routine - Unscheduled,1362_20160720_103105,Improper cooling methods,High Risk,5.0,7.0,6.0,9.0,28861.0,7.0
10237,2326,IRMA'S PAMPANGA RESTAURANT,2901 16th St,San Francisco,CA,94103,37.765123,-122.417919,"{'longitude': '-122.417919', 'latitude': '37.765123', 'human_address': '{""address"": """", ""city"": """", ""state"": """", ""zip"": """"}'}",14155626688.0,2326_20190225,2019-02-25T00:00:00.000,68.0,Routine - Unscheduled,2326_20190225_103119,Inadequate and inaccessible handwashing facilities,Moderate Risk,19.0,4.0,7.0,8.0,28859.0,20.0
10241,3727,ACE WASABI'S ROCK N ROLL SUSHI,3339 STEINER St,San Francisco,CA,94123,37.800215,-122.437834,"{'longitude': '-122.437834', 'latitude': '37.800215', 'human_address': '{""address"": """", ""city"": """", ""state"": """", ""zip"": """"}'}",14155564903.0,3727_20160713,2016-07-13T00:00:00.000,84.0,Routine - Unscheduled,3727_20160713_103131,Moderate risk vermin infestation,Moderate Risk,17.0,9.0,1.0,13.0,57.0,13.0
10252,929,Cafe Ethiopia,878 Valencia St,San Francisco,CA,94110,37.758832,-122.421359,"{'longitude': '-122.421359', 'latitude': '37.758832', 'human_address': '{""address"": """", ""city"": """", ""state"": """", ""zip"": """"}'}",14155319097.0,929_20180813,2018-08-13T00:00:00.000,89.0,Routine - Unscheduled,929_20180813_103124,Inadequately cleaned or sanitized food contact surfaces,Moderate Risk,19.0,4.0,5.0,2.0,28859.0,20.0
10253,403,HAAGEN-DAZS #561,865 MARKET St,San Francisco,CA,94103,37.784317,-122.407563,"{'longitude': '-122.407563', 'latitude': '37.784317', 'human_address': '{""address"": """", ""city"": """", ""state"": """", ""zip"": """"}'}",14155891550.0,403_20170925,2017-09-25T00:00:00.000,88.0,Routine - Unscheduled,403_20170925_103139,Improper food storage,Low Risk,34.0,2.0,9.0,12.0,28853.0,34.0
10264,7575,SUPER MIRA,1790 SUTTER St,San Francisco,CA,94115,37.786568,-122.429754,"{'longitude': '-122.429754', 'latitude': '37.786568', 'human_address': '{""address"": """", ""city"": """", ""state"": """", ""zip"": """"}'}",14155926529.0,7575_20180718,2018-07-18T00:00:00.000,90.0,Routine - Unscheduled,7575_20180718_103147,Inadequate ventilation or lighting,Low Risk,27.0,9.0,11.0,13.0,29490.0,30.0
10269,36589,Catering With Style,2800 BRYANT St,San Francisco,CA,94110,37.749603,-122.408928,"{'longitude': '-122.408928', 'latitude': '37.749603', 'human_address': '{""address"": """", ""city"": """", ""state"": """", ""zip"": """"}'}",14155201276.0,36589_20180604,2018-06-04T00:00:00.000,67.0,Routine - Unscheduled,36589_20180604_103114,High risk vermin infestation,High Risk,19.0,4.0,7.0,2.0,28859.0,20.0
10274,65624,Tacko Shop,3115 Fillmore St,San Francisco,CA,94123,37.798273,-122.435774,"{'longitude': '-122.435774', 'latitude': '37.798273', 'human_address': '{""address"": """", ""city"": """", ""state"": """", ""zip"": """"}'}",14155793534.0,65624_20180103,2018-01-03T00:00:00.000,92.0,Routine - Unscheduled,65624_20180103_103145,Improper storage of equipment utensils or linens,Low Risk,17.0,9.0,1.0,13.0,57.0,13.0
10281,62308,Sam's Diner,1220 Market Street,San Francisco,CA,94102,37.778497,-122.415146,"{'longitude': '-122.415146', 'latitude': '37.778497', 'human_address': '{""address"": """", ""city"": """", ""state"": """", ""zip"": """"}'}",14155628590.0,62308_20171026,2017-10-26T00:00:00.000,86.0,Routine - Unscheduled,62308_20171026_103154,Unclean or degraded floors walls or ceilings,Low Risk,36.0,2.0,9.0,7.0,28852.0,36.0
10283,5033,DESTINATION BAKING COMPANY,598 Chenery St,San Francisco,CA,94131,37.734619,-122.432379,"{'longitude': '-122.432379', 'latitude': '37.734619', 'human_address': '{""address"": """", ""city"": """", ""state"": """", ""zip"": """"}'}",14155460730.0,5033_20170822,2017-08-22T00:00:00.000,90.0,Routine - Unscheduled,5033_20170822_103131,Moderate risk vermin infestation,Moderate Risk,7.0,7.0,5.0,2.0,63.0,10.0
10296,63897,Bob's Donuts and Pastries,1621 Polk St,San Francisco,CA,94109,37.791914,-122.420984,"{'longitude': '-122.420984', 'latitude': '37.791914', 'human_address': '{""address"": """", ""city"": """", ""state"": """", ""zip"": """"}'}",14155773141.0,63897_20170919,2017-09-19T00:00:00.000,94.0,Routine - Unscheduled,63897_20170919_103142,Unclean nonfood contact surfaces,Low Risk,21.0,9.0,10.0,13.0,28858.0,21.0
10301,7449,CHEVRON #1760,1298 HOWARD St,San Francisco,CA,94103,37.775314,-122.412819,"{'longitude': '-122.412819', 'latitude': '37.775314', 'human_address': '{""address"": """", ""city"": """", ""state"": """", ""zip"": """"}'}",14155570290.0,7449_20171129,2017-11-29T00:00:00.000,98.0,Routine - Unscheduled,7449_20171129_103142,Unclean nonfood contact surfaces,Low Risk,34.0,2.0,9.0,8.0,28853.0,34.0
10307,5810,DENMAN MIDDLE SCHOOL,241 ONEIDA St,San Francisco,CA,94112,37.721825,-122.442876,"{'longitude': '-122.442876', 'latitude': '37.721825', 'human_address': '{""address"": """", ""city"": """", ""state"": """", ""zip"": """"}'}",14155464535.0,5810_20190215,2019-02-15T00:00:00.000,91.0,Routine - Unscheduled,5810_20190215_103144,Unapproved or unmaintained equipment or utensils,Low Risk,25.0,7.0,6.0,9.0,28861.0,28.0
10309,557,TASTEBUDS,600 05th Ave,San Francisco,CA,94118,37.77721,-122.462874,"{'longitude': '-122.462874', 'latitude': '37.77721', 'human_address': '{""address"": """", ""city"": """", ""state"": """", ""zip"": """"}'}",14155669292.0,557_20171018,2017-10-18T00:00:00.000,76.0,Routine - Unscheduled,557_20171018_103109,Unclean or unsanitary food contact surfaces,High Risk,11.0,6.0,2.0,11.0,54.0,11.0
10311,6003,JOSEPH LEE RECREATION CENTER,1395 MENDELL St,San Francisco,CA,94124,37.735232,-122.389694,"{'longitude': '-122.389694', 'latitude': '37.735232', 'human_address': '{""address"": """", ""city"": """", ""state"": """", ""zip"": """"}'}",14155829040.0,6003_20180814,2018-08-14T00:00:00.000,89.0,Routine - Unscheduled,6003_20180814_103119,Inadequate and inaccessible handwashing facilities,Moderate Risk,1.0,3.0,8.0,10.0,58.0,1.0
10315,3623,CHAVA'S,2839 MISSION St,San Francisco,CA,94110,37.751554,-122.418376,"{'longitude': '-122.418376', 'latitude': '37.751554', 'human_address': '{""address"": """", ""city"": """", ""state"": """", ""zip"": """"}'}",14155280283.0,3623_20190417,2019-04-17T00:00:00.000,90.0,Routine - Unscheduled,3623_20190417_103124,Inadequately cleaned or sanitized food contact surfaces,Moderate Risk,19.0,4.0,7.0,2.0,28859.0,20.0
10330,2374,BEAN BAG COFFEE HOUSE,601 DIVISADERO St,San Francisco,CA,94117,37.775184,-122.437864,"{'longitude': '-122.437864', 'latitude': '37.775184', 'human_address': '{""address"": """", ""city"": """", ""state"": """", ""zip"": """"}'}",14155563634.0,2374_20180412,2018-04-12T00:00:00.000,80.0,Routine - Unscheduled,2374_20180412_103144,Unapproved or unmaintained equipment or utensils,Low Risk,10.0,5.0,11.0,15.0,29492.0,9.0
10335,4559,PACIFIC FOOD MART,2199 SUTTER St,San Francisco,CA,94115,37.785623,-122.436498,"{'longitude': '-122.436498', 'latitude': '37.785623', 'human_address': '{""address"": """", ""city"": """", ""state"": """", ""zip"": """"}'}",14155612385.0,4559_20190308,2019-03-08T00:00:00.000,81.0,Routine - Unscheduled,4559_20190308_103145,Improper storage of equipment utensils or linens,Low Risk,13.0,6.0,11.0,13.0,29490.0,15.0
10343,10332,Harvest Urban Market,191 08th St,San Francisco,CA,94103,37.776384,-122.411684,"{'longitude': '-122.411684', 'latitude': '37.776384', 'human_address': '{""address"": """", ""city"": """", ""state"": """", ""zip"": """"}'}",14155620805.0,10332_20160726,2016-07-26T00:00:00.000,77.0,Routine - Unscheduled,10332_20160726_103156,Permit license or inspection report not posted,Low Risk,34.0,2.0,9.0,8.0,28853.0,34.0
10345,1021,LA SANTANECA DE LA MISSION,2815 MISSION St,San Francisco,CA,94110,37.751885,-122.418406,"{'longitude': '-122.418406', 'latitude': '37.751885', 'human_address': '{""address"": """", ""city"": """", ""state"": """", ""zip"": """"}'}",14155282131.0,1021_20170912,2017-09-12T00:00:00.000,90.0,Routine - Unscheduled,1021_20170912_103120,Moderate risk food holding temperature,Moderate Risk,19.0,4.0,7.0,2.0,28859.0,20.0
10349,70838,Trattoria Da Vittorio,150 WEST PORTAL Ave,San Francisco,CA,94127,37.739223,-122.46766,"{'longitude': '-122.46766', 'latitude': '37.739223', 'human_address': '{""address"": """", ""city"": """", ""state"": """", ""zip"": """"}'}",14150507976.0,70838_20181025,2018-10-25T00:00:00.000,90.0,Routine - Unscheduled,70838_20181025_103154,Unclean or degraded floors walls or ceilings,Low Risk,40.0,8.0,4.0,1.0,59.0,41.0
10351,3070,FLOWER MARKET CAFE,698 BRANNAN St,San Francisco,CA,94107,37.775664,-122.399999,"{'longitude': '-122.399999', 'latitude': '37.775664', 'human_address': '{""address"": """", ""city"": """", ""state"": """", ""zip"": """"}'}",14155497162.0,3070_20190110,2019-01-10T00:00:00.000,77.0,Routine - Unscheduled,3070_20190110_103138,Improper storage use or identification of toxic substances,Low Risk,34.0,2.0,9.0,14.0,28856.0,34.0
10355,35591,The Monk's Kettle,3141 16TH St,San Francisco,CA,94103,37.764814,-122.422979,"{'longitude': '-122.422979', 'latitude': '37.764814', 'human_address': '{""address"": """", ""city"": """", ""state"": """", ""zip"": """"}'}",14155869523.0,35591_20180109,2018-01-09T00:00:00.000,87.0,Routine - Unscheduled,35591_20180109_103124,Inadequately cleaned or sanitized food contact surfaces,Moderate Risk,19.0,4.0,5.0,8.0,28859.0,20.0
10365,2266,ALI BABA'S CAVE RESTAURANT,799 Valencia St,San Francisco,CA,94110,37.760164,-122.421334,"{'longitude': '-122.421334', 'latitude': '37.760164', 'human_address': '{""address"": """", ""city"": """", ""state"": """", ""zip"": """"}'}",14155863054.0,2266_20170724,2017-07-24T00:00:00.000,86.0,Routine - Unscheduled,2266_20170724_103154,Unclean or degraded floors walls or ceilings,Low Risk,19.0,4.0,7.0,2.0,28859.0,20.0
10368,61959,Expressions Snack Bar,Pier 41,San Francisco,CA,94133,37.808494,-122.412,"{'longitude': '-122.412', 'latitude': '37.808494', 'human_address': '{""address"": """", ""city"": """", ""state"": """", ""zip"": """"}'}",14155670266.0,61959_20160620,2016-06-20T00:00:00.000,91.0,Routine - Unscheduled,61959_20160620_103103,High risk food holding temperature,High Risk,23.0,1.0,10.0,3.0,308.0,23.0
10369,32671,La Taqueria Guadalajara,3146 24th St,San Francisco,CA,94110,37.752512,-122.415109,"{'longitude': '-122.415109', 'latitude': '37.752512', 'human_address': '{""address"": """", ""city"": """", ""state"": """", ""zip"": """"}'}",14155644892.0,32671_20170920,2017-09-20T00:00:00.000,86.0,Routine - Unscheduled,32671_20170920_103120,Moderate risk food holding temperature,Moderate Risk,19.0,4.0,7.0,2.0,28859.0,20.0
10376,3920,BOSTON MARKET,2300 16th St,San Francisco,CA,94103,37.765708,-122.409002,"{'longitude': '-122.409002', 'latitude': '37.765708', 'human_address': '{""address"": """", ""city"": """", ""state"": """", ""zip"": """"}'}",14155867666.0,3920_20190102,2019-01-02T00:00:00.000,94.0,Routine - Unscheduled,3920_20190102_103153,Inadequate dressing rooms or improper storage of personal items,Low Risk,19.0,4.0,8.0,8.0,28853.0,20.0
10377,5847,John Muir Elementary School,380 Webster St,San Francisco,CA,94117,37.774046,-122.429076,"{'longitude': '-122.429076', 'latitude': '37.774046', 'human_address': '{""address"": """", ""city"": """", ""state"": """", ""zip"": """"}'}",14155246335.0,5847_20180405,2018-04-05T00:00:00.000,90.0,Routine - Unscheduled,5847_20180405_103149,Wiping cloths not clean or properly stored or inadequate sanitizer,Low Risk,10.0,9.0,11.0,7.0,28852.0,9.0
10383,63652,SFDH - Banquet Main Kitchen,450 Powell St 2nd Floor,San Francisco,CA,94102,37.788918,-122.408507,"{'longitude': '-122.408507', 'latitude': '37.788918', 'human_address': '{""address"": """", ""city"": """", ""state"": """", ""zip"": """"}'}",14155397755.0,63652_20190212,2019-02-12T00:00:00.000,90.0,Routine - Unscheduled,63652_20190212_103157,Food safety certificate or food handler card not available,Low Risk,6.0,1.0,10.0,5.0,28852.0,8.0
10391,5827,HILLCREST ELEMENTARY SCHOOL,810 SILVER Ave,San Francisco,CA,94134,37.729016,-122.419253,"{'longitude': '-122.419253', 'latitude': '37.729016', 'human_address': '{""address"": """", ""city"": """", ""state"": """", ""zip"": """"}'}",14155464722.0,5827_20170214,2017-02-14T00:00:00.000,96.0,Routine - Unscheduled,5827_20170214_103131,Moderate risk vermin infestation,Moderate Risk,5.0,3.0,7.0,9.0,309.0,7.0
10396,2750,HAMANO SUSHI,1332 CASTRO St,San Francisco,CA,94114,37.750778,-122.434065,"{'longitude': '-122.434065', 'latitude': '37.750778', 'human_address': '{""address"": """", ""city"": """", ""state"": """", ""zip"": """"}'}",14155820825.0,2750_20170823,2017-08-23T00:00:00.000,84.0,Routine - Unscheduled,2750_20170823_103133,Foods not protected from contamination,Moderate Risk,22.0,4.0,5.0,2.0,28862.0,22.0
10400,3626,Beretta,1199 VALENCIA St,San Francisco,CA,94110,37.753823,-122.420786,"{'longitude': '-122.420786', 'latitude': '37.753823', 'human_address': '{""address"": """", ""city"": """", ""state"": """", ""zip"": """"}'}",14155691199.0,3626_20171004,2017-10-04T00:00:00.000,89.0,Routine - Unscheduled,3626_20171004_103105,Improper cooling methods,High Risk,19.0,4.0,7.0,2.0,28859.0,20.0
10403,63082,The Brick Yard,1787 Union St,San Francisco,CA,94123,37.797933,-122.428627,"{'longitude': '-122.428627', 'latitude': '37.797933', 'human_address': '{""address"": """", ""city"": """", ""state"": """", ""zip"": """"}'}",14156677676.0,63082_20170512,2017-05-12T00:00:00.000,70.0,Routine - Unscheduled,63082_20170512_103154,Unclean or degraded floors walls or ceilings,Low Risk,17.0,9.0,1.0,13.0,57.0,13.0
10409,628,EL BURRITO EXPRESS #2,1812 DIVISADERO St,San Francisco,CA,94115,37.786407,-122.440057,"{'longitude': '-122.440057', 'latitude': '37.786407', 'human_address': '{""address"": """", ""city"": """", ""state"": """", ""zip"": """"}'}",14155774246.0,628_20180504,2018-05-04T00:00:00.000,74.0,Routine - Unscheduled,628_20180504_103120,Moderate risk food holding temperature,Moderate Risk,27.0,6.0,1.0,13.0,29490.0,30.0
10410,61500,Happy Lounge,3745 Geary Blvd,San Francisco,CA,94118,37.781143,-122.459709,"{'longitude': '-122.459709', 'latitude': '37.781143', 'human_address': '{""address"": """", ""city"": """", ""state"": """", ""zip"": """"}'}",14155662323.0,61500_20180927,2018-09-27T00:00:00.000,94.0,Routine - Unscheduled,61500_20180927_103124,Inadequately cleaned or sanitized food contact surfaces,Moderate Risk,11.0,6.0,2.0,11.0,54.0,11.0
10411,3267,The Olive Garden Italian,3251 20th Ave,San Francisco,CA,94132,37.728497,-122.475639,"{'longitude': '-122.475639', 'latitude': '37.728497', 'human_address': '{""address"": """", ""city"": """", ""state"": """", ""zip"": """"}'}",14155666770.0,3267_20180510,2018-05-10T00:00:00.000,83.0,Routine - Unscheduled,3267_20180510_103108,Contaminated or adulterated food,High Risk,14.0,8.0,4.0,1.0,64.0,16.0
10429,2134,"CHIEFTAIN IRISH PUB, THE",198 05th St,San Francisco,CA,94103,37.781567,-122.405059,"{'longitude': '-122.405059', 'latitude': '37.781567', 'human_address': '{""address"": """", ""city"": """", ""state"": """", ""zip"": """"}'}",14155610916.0,2134_20171211,2017-12-11T00:00:00.000,87.0,Routine - Unscheduled,2134_20171211_103154,Unclean or degraded floors walls or ceilings,Low Risk,34.0,2.0,9.0,14.0,28853.0,34.0
10432,943,EL CASTILLITO TAQUERIA INC.,136 CHURCH St,San Francisco,CA,94114,37.768776,-122.429095,"{'longitude': '-122.429095', 'latitude': '37.768776', 'human_address': '{""address"": """", ""city"": """", ""state"": """", ""zip"": """"}'}",14155623428.0,943_20180426,2018-04-26T00:00:00.000,76.0,Routine - Unscheduled,943_20180426_103120,Moderate risk food holding temperature,Moderate Risk,3.0,9.0,5.0,7.0,28862.0,5.0
10443,557,TASTEBUDS,600 05th Ave,San Francisco,CA,94118,37.77721,-122.462874,"{'longitude': '-122.462874', 'latitude': '37.77721', 'human_address': '{""address"": """", ""city"": """", ""state"": """", ""zip"": """"}'}",14155669292.0,557_20171018,2017-10-18T00:00:00.000,76.0,Routine - Unscheduled,557_20171018_103144,Unapproved or unmaintained equipment or utensils,Low Risk,11.0,6.0,2.0,11.0,54.0,11.0
10455,7747,SAFEWAY STORE #964,4950 Mission St,San Francisco,CA,94112,37.71954,-122.438775,"{'longitude': '-122.438775', 'latitude': '37.71954', 'human_address': '{""address"": """", ""city"": """", ""state"": """", ""zip"": """"}'}",14155587200.0,7747_20180622,2018-06-22T00:00:00.000,83.0,Routine - Unscheduled,7747_20180622_103103,High risk food holding temperature,High Risk,25.0,7.0,6.0,9.0,28861.0,28.0
10460,61285,Cocola,3251 20th Ave 186,San Francisco,CA,94132,37.728497,-122.475639,"{'longitude': '-122.475639', 'latitude': '37.728497', 'human_address': '{""address"": """", ""city"": """", ""state"": """", ""zip"": """"}'}",14155246238.0,61285_20171019,2017-10-19T00:00:00.000,89.0,Routine - Unscheduled,61285_20171019_103129,Insufficient hot water or running water,Moderate Risk,14.0,8.0,4.0,1.0,64.0,16.0
10463,4860,Play  Field Cafe,1 Zoo Rd,San Francisco,CA,94132,37.73017,-122.502535,"{'longitude': '-122.502535', 'latitude': '37.73017', 'human_address': '{""address"": """", ""city"": """", ""state"": """", ""zip"": """"}'}",14155757132.0,4860_20170411,2017-04-11T00:00:00.000,88.0,Routine - Unscheduled,4860_20170411_103162,Other low risk violation,Low Risk,14.0,8.0,4.0,1.0,64.0,16.0
10468,2609,Pride of the Mediterranean,1761 Fillmore St,San Francisco,CA,94115,37.785718,-122.433262,"{'longitude': '-122.433262', 'latitude': '37.785718', 'human_address': '{""address"": """", ""city"": """", ""state"": """", ""zip"": """"}'}",14155561150.0,2609_20190312,2019-03-12T00:00:00.000,75.0,Routine - Unscheduled,2609_20190312_103150,Improper or defective plumbing,Low Risk,13.0,9.0,11.0,13.0,29490.0,15.0
10471,5817,LAKESHORE ELEMENTARY SCHOOL,220 MIDDLEFIELD Dr,San Francisco,CA,94132,37.730637,-122.4861,"{'longitude': '-122.4861', 'latitude': '37.730637', 'human_address': '{""address"": """", ""city"": """", ""state"": """", ""zip"": """"}'}",14155752825.0,5817_20171003,2017-10-03T00:00:00.000,94.0,Routine - Unscheduled,5817_20171003_103149,Wiping cloths not clean or properly stored or inadequate sanitizer,Low Risk,14.0,8.0,4.0,1.0,64.0,16.0
10477,4787,TONY BALONEY'S,1098 HOWARD St,San Francisco,CA,94103,37.778033,-122.40943,"{'longitude': '-122.40943', 'latitude': '37.778033', 'human_address': '{""address"": """", ""city"": """", ""state"": """", ""zip"": """"}'}",14155861514.0,4787_20171002,2017-10-02T00:00:00.000,86.0,Routine - Unscheduled,4787_20171002_103124,Inadequately cleaned or sanitized food contact surfaces,Moderate Risk,34.0,2.0,9.0,8.0,28853.0,34.0
10483,69175,Mau Restaurant,665 Valencia St,San Francisco,CA,94110,37.762381,-122.42156,"{'longitude': '-122.42156', 'latitude': '37.762381', 'human_address': '{""address"": """", ""city"": """", ""state"": """", ""zip"": """"}'}",14155307517.0,69175_20160601,2016-06-01T00:00:00.000,84.0,Routine - Unscheduled,69175_20160601_103120,Moderate risk food holding temperature,Moderate Risk,19.0,4.0,7.0,8.0,28859.0,20.0
10487,63897,Bob's Donuts and Pastries,1621 Polk St,San Francisco,CA,94109,37.791914,-122.420984,"{'longitude': '-122.420984', 'latitude': '37.791914', 'human_address': '{""address"": """", ""city"": """", ""state"": """", ""zip"": """"}'}",14155773141.0,63897_20161017,2016-10-17T00:00:00.000,90.0,Routine - Unscheduled,63897_20161017_103124,Inadequately cleaned or sanitized food contact surfaces,Moderate Risk,21.0,9.0,10.0,13.0,28858.0,21.0
10490,2266,ALI BABA'S CAVE RESTAURANT,799 Valencia St,San Francisco,CA,94110,37.760164,-122.421334,"{'longitude': '-122.421334', 'latitude': '37.760164', 'human_address': '{""address"": """", ""city"": """", ""state"": """", ""zip"": """"}'}",14155863054.0,2266_20181011,2018-10-11T00:00:00.000,69.0,Routine - Unscheduled,2266_20181011_103124,Inadequately cleaned or sanitized food contact surfaces,Moderate Risk,19.0,4.0,7.0,2.0,28859.0,20.0
10494,3715,WE BE SUSHI,538 Valencia St,San Francisco,CA,94110,37.764272,-122.421898,"{'longitude': '-122.421898', 'latitude': '37.764272', 'human_address': '{""address"": """", ""city"": """", ""state"": """", ""zip"": """"}'}",14155520129.0,3715_20160919,2016-09-19T00:00:00.000,79.0,Routine - Unscheduled,3715_20160919_103148,No thermometers or uncalibrated thermometers,Low Risk,19.0,4.0,5.0,8.0,28859.0,20.0
10501,19056,Moscone Center West -  3 Flr. Pantry,800 HOWARD St 3/F,San Francisco,CA,94103,37.783257,-122.402816,"{'longitude': '-122.402816', 'latitude': '37.783257', 'human_address': '{""address"": """", ""city"": """", ""state"": """", ""zip"": """"}'}",14155974040.0,19056_20161130,2016-11-30T00:00:00.000,96.0,Routine - Unscheduled,19056_20161130_103131,Moderate risk vermin infestation,Moderate Risk,34.0,2.0,9.0,12.0,28853.0,34.0
10512,2020,MONROE RESIDENCE CLUB,1870 Sacramento St,San Francisco,CA,94109,37.791178,-122.423703,"{'longitude': '-122.423703', 'latitude': '37.791178', 'human_address': '{""address"": """", ""city"": """", ""state"": """", ""zip"": """"}'}",14155476200.0,2020_20161214,2016-12-14T00:00:00.000,74.0,Routine - Unscheduled,2020_20161214_103144,Unapproved or unmaintained equipment or utensils,Low Risk,27.0,9.0,1.0,13.0,28858.0,30.0
10515,3070,FLOWER MARKET CAFE,698 BRANNAN St,San Francisco,CA,94107,37.775664,-122.399999,"{'longitude': '-122.399999', 'latitude': '37.775664', 'human_address': '{""address"": """", ""city"": """", ""state"": """", ""zip"": """"}'}",14155497162.0,3070_20170725,2017-07-25T00:00:00.000,75.0,Routine - Unscheduled,3070_20170725_103105,Improper cooling methods,High Risk,34.0,2.0,9.0,14.0,28856.0,34.0
10528,3623,CHAVA'S,2839 MISSION St,San Francisco,CA,94110,37.751554,-122.418376,"{'longitude': '-122.418376', 'latitude': '37.751554', 'human_address': '{""address"": """", ""city"": """", ""state"": """", ""zip"": """"}'}",14155280283.0,3623_20160819,2016-08-19T00:00:00.000,88.0,Routine - Unscheduled,3623_20160819_103161,Low risk vermin infestation,Low Risk,19.0,4.0,7.0,2.0,28859.0,20.0
10532,379,GIANT SCOOP,2708 SAN BRUNO Ave,San Francisco,CA,94134,37.727468,-122.403582,"{'longitude': '-122.403582', 'latitude': '37.727468', 'human_address': '{""address"": """", ""city"": """", ""state"": """", ""zip"": """"}'}",14155465051.0,379_20180328,2018-03-28T00:00:00.000,77.0,Routine - Unscheduled,379_20180328_103131,Moderate risk vermin infestation,Moderate Risk,28.0,3.0,7.0,10.0,309.0,25.0
10536,2326,IRMA'S PAMPANGA RESTAURANT,2901 16th St,San Francisco,CA,94103,37.765123,-122.417919,"{'longitude': '-122.417919', 'latitude': '37.765123', 'human_address': '{""address"": """", ""city"": """", ""state"": """", ""zip"": """"}'}",14155626688.0,2326_20180411,2018-04-11T00:00:00.000,74.0,Routine - Unscheduled,2326_20180411_103131,Moderate risk vermin infestation,Moderate Risk,19.0,4.0,7.0,8.0,28859.0,20.0
10539,6912,"STORE ON THE CORNER, THE",121 NEW MONTGOMERY St,San Francisco,CA,94105,37.787113,-122.400052,"{'longitude': '-122.400052', 'latitude': '37.787113', 'human_address': '{""address"": """", ""city"": """", ""state"": """", ""zip"": """"}'}",14155783348.0,6912_20160811,2016-08-11T00:00:00.000,86.0,Routine - Unscheduled,6912_20160811_103129,Insufficient hot water or running water,Moderate Risk,6.0,2.0,9.0,12.0,28855.0,8.0
10542,1005,CHAVITA'S MEXICAN RESTAURANT,3006 MISSION St,San Francisco,CA,94110,37.748855,-122.418134,"{'longitude': '-122.418134', 'latitude': '37.748855', 'human_address': '{""address"": """", ""city"": """", ""state"": """", ""zip"": """"}'}",14155286927.0,1005_20170713,2017-07-13T00:00:00.000,78.0,Routine - Unscheduled,1005_20170713_103149,Wiping cloths not clean or properly stored or inadequate sanitizer,Low Risk,19.0,4.0,7.0,2.0,28859.0,20.0
10545,2454,San Jalisco,901 South Van Ness Ave,San Francisco,CA,94110,37.758634,-122.416866,"{'longitude': '-122.416866', 'latitude': '37.758634', 'human_address': '{""address"": """", ""city"": """", ""state"": """", ""zip"": """"}'}",14155648383.0,2454_20161026,2016-10-26T00:00:00.000,90.0,Routine - Unscheduled,2454_20161026_103120,Moderate risk food holding temperature,Moderate Risk,19.0,4.0,7.0,2.0,28859.0,20.0
10548,1008,VALENCIA PIZZA & PASTA,801 VALENCIA St,San Francisco,CA,94110,37.759944,-122.421356,"{'longitude': '-122.421356', 'latitude': '37.759944', 'human_address': '{""address"": """", ""city"": """", ""state"": """", ""zip"": """"}'}",14155641882.0,1008_20180409,2018-04-09T00:00:00.000,85.0,Routine - Unscheduled,1008_20180409_103142,Unclean nonfood contact surfaces,Low Risk,19.0,4.0,7.0,2.0,28859.0,20.0
10555,3228,THANH LONG RESTAURANT,4101 JUDAH St,San Francisco,CA,94122,37.760383,-122.50609,"{'longitude': '-122.50609', 'latitude': '37.760383', 'human_address': '{""address"": """", ""city"": """", ""state"": """", ""zip"": """"}'}",14155257984.0,3228_20180619,2018-06-19T00:00:00.000,86.0,Routine - Unscheduled,3228_20180619_103133,Foods not protected from contamination,Moderate Risk,35.0,8.0,3.0,1.0,56.0,35.0
10565,3825,COVE CAFE,434 CASTRO St,San Francisco,CA,94114,37.761918,-122.435135,"{'longitude': '-122.435135', 'latitude': '37.761918', 'human_address': '{""address"": """", ""city"": """", ""state"": """", ""zip"": """"}'}",14155620462.0,3825_20180724,2018-07-24T00:00:00.000,90.0,Routine - Unscheduled,3825_20180724_103132,Improper thawing methods,Moderate Risk,3.0,4.0,5.0,15.0,28862.0,5.0
10566,4683,JAVA ON OCEAN,1700 OCEAN Ave,San Francisco,CA,94112,37.724778,-122.460205,"{'longitude': '-122.460205', 'latitude': '37.724778', 'human_address': '{""address"": """", ""city"": """", ""state"": """", ""zip"": """"}'}",14155336075.0,4683_20160831,2016-08-31T00:00:00.000,90.0,Routine - Unscheduled,4683_20160831_103144,Unapproved or unmaintained equipment or utensils,Low Risk,40.0,8.0,4.0,9.0,28861.0,41.0
10567,5810,DENMAN MIDDLE SCHOOL,241 ONEIDA St,San Francisco,CA,94112,37.721825,-122.442876,"{'longitude': '-122.442876', 'latitude': '37.721825', 'human_address': '{""address"": """", ""city"": """", ""state"": """", ""zip"": """"}'}",14155464535.0,5810_20190215,2019-02-15T00:00:00.000,91.0,Routine - Unscheduled,5810_20190215_103114,High risk vermin infestation,High Risk,25.0,7.0,6.0,9.0,28861.0,28.0
10575,62701,Wayfare Tavern,558 Sacramento St,San Francisco,CA,94111,37.793907,-122.402304,"{'longitude': '-122.402304', 'latitude': '37.793907', 'human_address': '{""address"": """", ""city"": """", ""state"": """", ""zip"": """"}'}",14150256062.0,62701_20161222,2016-12-22T00:00:00.000,78.0,Routine - Unscheduled,62701_20161222_103143,Inadequate warewashing facilities or equipment,Low Risk,4.0,1.0,10.0,3.0,28860.0,6.0
10578,61500,Happy Lounge,3745 Geary Blvd,San Francisco,CA,94118,37.781143,-122.459709,"{'longitude': '-122.459709', 'latitude': '37.781143', 'human_address': '{""address"": """", ""city"": """", ""state"": """", ""zip"": """"}'}",14155662323.0,61500_20171129,2017-11-29T00:00:00.000,94.0,Routine - Unscheduled,61500_20171129_103145,Improper storage of equipment utensils or linens,Low Risk,11.0,6.0,2.0,11.0,54.0,11.0
10579,3065,CHA-AM RESTAURANT,701 FOLSOM St,San Francisco,CA,94107,37.783738,-122.398918,"{'longitude': '-122.398918', 'latitude': '37.783738', 'human_address': '{""address"": """", ""city"": """", ""state"": """", ""zip"": """"}'}",14155549710.0,3065_20171019,2017-10-19T00:00:00.000,85.0,Routine - Unscheduled,3065_20171019_103144,Unapproved or unmaintained equipment or utensils,Low Risk,34.0,2.0,9.0,6.0,28856.0,34.0
10581,2325,THE CITRUS CLUB,1790 HAIGHT St,San Francisco,CA,94117,37.769428,-122.451604,"{'longitude': '-122.451604', 'latitude': '37.769428', 'human_address': '{""address"": """", ""city"": """", ""state"": """", ""zip"": """"}'}",14155759656.0,2325_20181128,2018-11-28T00:00:00.000,88.0,Routine - Unscheduled,2325_20181128_103121,Inadequate procedures or records for time as a public health control,Moderate Risk,9.0,5.0,11.0,15.0,29492.0,3.0
10582,1426,SWEET DELIGHT BAKERY,4476A MISSION,San Francisco,CA,94112,37.726117,-122.433817,"{'longitude': '-122.433817', 'latitude': '37.726117', 'human_address': '{""address"": """", ""city"": """", ""state"": """", ""zip"": """"}'}",14155336786.0,1426_20190304,2019-03-04T00:00:00.000,67.0,Routine - Unscheduled,1426_20190304_103124,Inadequately cleaned or sanitized food contact surfaces,Moderate Risk,25.0,7.0,6.0,9.0,28861.0,28.0
10584,741,MOZZARELLA DI BUFALA PIZZERIA II,069 WEST PORTAL Ave,San Francisco,CA,94127,37.740052,-122.466544,"{'longitude': '-122.466544', 'latitude': '37.740052', 'human_address': '{""address"": """", ""city"": """", ""state"": """", ""zip"": """"}'}",14155668900.0,741_20160610,2016-06-10T00:00:00.000,83.0,Routine - Unscheduled,741_20160610_103144,Unapproved or unmaintained equipment or utensils,Low Risk,40.0,8.0,4.0,1.0,59.0,41.0
10587,1243,JAVA SUPREME,0703 GUERRERO St,San Francisco,CA,94110,37.759934,-122.423553,"{'longitude': '-122.423553', 'latitude': '37.759934', 'human_address': '{""address"": """", ""city"": """", ""state"": """", ""zip"": """"}'}",14155201832.0,1243_20160518,2016-05-18T00:00:00.000,94.0,Routine - Unscheduled,1243_20160518_103150,Improper or defective plumbing,Low Risk,19.0,4.0,5.0,2.0,28859.0,20.0
10589,3165,HAN IL KWAN,1802 BALBOA St,San Francisco,CA,94121,37.776599,-122.478292,"{'longitude': '-122.478292', 'latitude': '37.776599', 'human_address': '{""address"": """", ""city"": """", ""state"": """", ""zip"": """"}'}",14153598244.0,3165_20180507,2018-05-07T00:00:00.000,77.0,Routine - Unscheduled,3165_20180507_103131,Moderate risk vermin infestation,Moderate Risk,26.0,6.0,2.0,11.0,55.0,29.0
10591,1354,SUSHI TIME,2275 MARKET St,San Francisco,CA,94114,37.764697,-122.432322,"{'longitude': '-122.432322', 'latitude': '37.764697', 'human_address': '{""address"": """", ""city"": """", ""state"": """", ""zip"": """"}'}",14155552280.0,1354_20180420,2018-04-20T00:00:00.000,86.0,Routine - Unscheduled,1354_20180420_103124,Inadequately cleaned or sanitized food contact surfaces,Moderate Risk,3.0,4.0,5.0,15.0,28862.0,5.0
10592,7748,FOODS CO. #351,345 WILLIAMS Ave,San Francisco,CA,94124,37.730164,-122.399114,"{'longitude': '-122.399114', 'latitude': '37.730164', 'human_address': '{""address"": """", ""city"": """", ""state"": """", ""zip"": """"}'}",14155331870.0,7748_20170125,2017-01-25T00:00:00.000,90.0,Routine - Unscheduled,7748_20170125_103133,Foods not protected from contamination,Moderate Risk,1.0,3.0,8.0,10.0,58.0,1.0
10596,29948,Cafe Venue,67 05th St,San Francisco,CA,94103,37.783074,-122.406922,"{'longitude': '-122.406922', 'latitude': '37.783074', 'human_address': '{""address"": """", ""city"": """", ""state"": """", ""zip"": """"}'}",14155541144.0,29948_20160617,2016-06-17T00:00:00.000,87.0,Routine - Unscheduled,29948_20160617_103147,Inadequate ventilation or lighting,Low Risk,34.0,2.0,9.0,14.0,28853.0,34.0
10603,5955,SF CHRISTIAN DAY SCHOOL,25 WHITTIER St,San Francisco,CA,94112,37.709896,-122.448082,"{'longitude': '-122.448082', 'latitude': '37.709896', 'human_address': '{""address"": """", ""city"": """", ""state"": """", ""zip"": """"}'}",14155581117.0,5955_20170912,2017-09-12T00:00:00.000,96.0,Routine - Unscheduled,5955_20170912_103149,Wiping cloths not clean or properly stored or inadequate sanitizer,Low Risk,5.0,7.0,6.0,9.0,28861.0,7.0
10606,3070,FLOWER MARKET CAFE,698 BRANNAN St,San Francisco,CA,94107,37.775664,-122.399999,"{'longitude': '-122.399999', 'latitude': '37.775664', 'human_address': '{""address"": """", ""city"": """", ""state"": """", ""zip"": """"}'}",14155497162.0,3070_20170725,2017-07-25T00:00:00.000,75.0,Routine - Unscheduled,3070_20170725_103120,Moderate risk food holding temperature,Moderate Risk,34.0,2.0,9.0,14.0,28856.0,34.0
10607,3877,BALBOA CAFE,3199 FILLMORE St,San Francisco,CA,94123,37.798835,-122.435894,"{'longitude': '-122.435894', 'latitude': '37.798835', 'human_address': '{""address"": """", ""city"": """", ""state"": """", ""zip"": """"}'}",14155923944.0,3877_20180104,2018-01-04T00:00:00.000,79.0,Routine - Unscheduled,3877_20180104_103103,High risk food holding temperature,High Risk,17.0,9.0,1.0,13.0,57.0,13.0
10608,2085,KENTUCKY FRIED CHICKEN #249,691 EDDY St,San Francisco,CA,94109,37.783053,-122.418988,"{'longitude': '-122.418988', 'latitude': '37.783053', 'human_address': '{""address"": """", ""city"": """", ""state"": """", ""zip"": """"}'}",14155672641.0,2085_20161108,2016-11-08T00:00:00.000,78.0,Routine - Unscheduled,2085_20161108_103156,Permit license or inspection report not posted,Low Risk,36.0,9.0,9.0,7.0,28852.0,36.0
10609,1300,WE BE SUSHI,1071 VALENCIA St,San Francisco,CA,94110,37.755824,-122.420986,"{'longitude': '-122.420986', 'latitude': '37.755824', 'human_address': '{""address"": """", ""city"": """", ""state"": """", ""zip"": """"}'}",14155820607.0,1300_20160927,2016-09-27T00:00:00.000,65.0,Routine - Unscheduled,1300_20160927_103148,No thermometers or uncalibrated thermometers,Low Risk,19.0,4.0,7.0,2.0,28859.0,20.0
10610,69172,Victoria Pastry Co.,700 Filbert St,San Francisco,CA,94133,37.8012,-122.411191,"{'longitude': '-122.411191', 'latitude': '37.8012', 'human_address': '{""address"": """", ""city"": """", ""state"": """", ""zip"": """"}'}",14155981655.0,69172_20180824,2018-08-24T00:00:00.000,96.0,Routine - Unscheduled,69172_20180824_103154,Unclean or degraded floors walls or ceilings,Low Risk,23.0,1.0,10.0,3.0,308.0,23.0
10618,4492,Mollie Stone's Grand Central Market (Mezzanine Level),2435 CALIFORNIA St,San Francisco,CA,94115,37.788773,-122.434697,"{'longitude': '-122.434697', 'latitude': '37.788773', 'human_address': '{""address"": """", ""city"": """", ""state"": """", ""zip"": """"}'}",14155564902.0,4492_20160627,2016-06-27T00:00:00.000,90.0,Routine - Unscheduled,4492_20160627_103131,Moderate risk vermin infestation,Moderate Risk,27.0,9.0,1.0,13.0,29490.0,30.0
10620,65051,Mission Cheese,736 Valencia St,San Francisco,CA,94110,37.761147,-122.421534,"{'longitude': '-122.421534', 'latitude': '37.761147', 'human_address': '{""address"": """", ""city"": """", ""state"": """", ""zip"": """"}'}",14155558667.0,65051_20171205,2017-12-05T00:00:00.000,93.0,Routine - Unscheduled,65051_20171205_103105,Improper cooling methods,High Risk,19.0,4.0,5.0,2.0,28859.0,20.0
10621,5905,MARINA MIDDLE SCHOOL,3500 FILLMORE St,San Francisco,CA,94123,37.801776,-122.43641,"{'longitude': '-122.43641', 'latitude': '37.801776', 'human_address': '{""address"": """", ""city"": """", ""state"": """", ""zip"": """"}'}",14155743495.0,5905_20160920,2016-09-20T00:00:00.000,94.0,Routine - Unscheduled,5905_20160920_103161,Low risk vermin infestation,Low Risk,17.0,9.0,1.0,13.0,57.0,13.0
10626,3165,HAN IL KWAN,1802 BALBOA St,San Francisco,CA,94121,37.776599,-122.478292,"{'longitude': '-122.478292', 'latitude': '37.776599', 'human_address': '{""address"": """", ""city"": """", ""state"": """", ""zip"": """"}'}",14153598244.0,3165_20161003,2016-10-03T00:00:00.000,79.0,Routine - Unscheduled,3165_20161003_103144,Unapproved or unmaintained equipment or utensils,Low Risk,26.0,6.0,2.0,11.0,55.0,29.0
10632,35199,Pho #1,2571 SAN BRUNO Ave,San Francisco,CA,94134,37.729254,-122.40426,"{'longitude': '-122.40426', 'latitude': '37.729254', 'human_address': '{""address"": """", ""city"": """", ""state"": """", ""zip"": """"}'}",14155339289.0,35199_20170103,2017-01-03T00:00:00.000,79.0,Routine - Unscheduled,35199_20170103_103144,Unapproved or unmaintained equipment or utensils,Low Risk,28.0,3.0,7.0,10.0,309.0,25.0
10635,65007,Pause,1666 Market St.,San Francisco,CA,94102,37.773344,-122.421638,"{'longitude': '-122.421638', 'latitude': '37.773344', 'human_address': '{""address"": """", ""city"": """", ""state"": """", ""zip"": """"}'}",14155408984.0,65007_20181127,2018-11-27T00:00:00.000,92.0,Routine - Unscheduled,65007_20181127_103144,Unapproved or unmaintained equipment or utensils,Low Risk,10.0,2.0,11.0,7.0,28852.0,9.0
10636,2347,LAS TINAJAS,2338 MISSION St,San Francisco,CA,94110,37.759567,-122.419185,"{'longitude': '-122.419185', 'latitude': '37.759567', 'human_address': '{""address"": """", ""city"": """", ""state"": """", ""zip"": """"}'}",14155699933.0,2347_20181107,2018-11-07T00:00:00.000,86.0,Routine - Unscheduled,2347_20181107_103120,Moderate risk food holding temperature,Moderate Risk,19.0,4.0,7.0,2.0,28859.0,20.0
10648,37060,Halu,312 08th Ave,San Francisco,CA,94118,37.782576,-122.46648,"{'longitude': '-122.46648', 'latitude': '37.782576', 'human_address': '{""address"": """", ""city"": """", ""state"": """", ""zip"": """"}'}",14155229165.0,37060_20181024,2018-10-24T00:00:00.000,94.0,Routine - Unscheduled,37060_20181024_103154,Unclean or degraded floors walls or ceilings,Low Risk,11.0,6.0,2.0,11.0,54.0,11.0
10651,587,NEW TSING TAO RESTAURANT,811 ULLOA St,San Francisco,CA,94127,37.740654,-122.465389,"{'longitude': '-122.465389', 'latitude': '37.740654', 'human_address': '{""address"": """", ""city"": """", ""state"": """", ""zip"": """"}'}",14155569559.0,587_20181203,2018-12-03T00:00:00.000,70.0,Routine - Unscheduled,587_20181203_103131,Moderate risk vermin infestation,Moderate Risk,40.0,8.0,4.0,1.0,59.0,41.0
10656,2638,SF BAGEL CO. (KATZ BAGELS),3147 16th St,San Francisco,CA,94103,37.764814,-122.423089,"{'longitude': '-122.423089', 'latitude': '37.764814', 'human_address': '{""address"": """", ""city"": """", ""state"": """", ""zip"": """"}'}",14155559050.0,2638_20180830,2018-08-30T00:00:00.000,86.0,Routine - Unscheduled,2638_20180830_103144,Unapproved or unmaintained equipment or utensils,Low Risk,19.0,4.0,5.0,8.0,28859.0,20.0
10658,3038,TURK & LARKIN DELI,476 TURK St,San Francisco,CA,94102,37.782458,-122.416873,"{'longitude': '-122.416873', 'latitude': '37.782458', 'human_address': '{""address"": """", ""city"": """", ""state"": """", ""zip"": """"}'}",14155776889.0,3038_20160620,2016-06-20T00:00:00.000,73.0,Routine - Unscheduled,3038_20160620_103154,Unclean or degraded floors walls or ceilings,Low Risk,36.0,10.0,9.0,7.0,28852.0,36.0
10660,6025,KIMOCHI INC,1840 SUTTER St 208,San Francisco,CA,94115,37.786428,-122.430883,"{'longitude': '-122.430883', 'latitude': '37.786428', 'human_address': '{""address"": """", ""city"": """", ""state"": """", ""zip"": """"}'}",14155932294.0,6025_20180425,2018-04-25T00:00:00.000,92.0,Routine - Unscheduled,6025_20180425_103144,Unapproved or unmaintained equipment or utensils,Low Risk,27.0,9.0,11.0,13.0,29490.0,30.0
10662,21982,Chico's Grill,3771 Mission St,San Francisco,CA,94110,37.736438,-122.424269,"{'longitude': '-122.424269', 'latitude': '37.736438', 'human_address': '{""address"": """", ""city"": """", ""state"": """", ""zip"": """"}'}",14155970375.0,21982_20160606,2016-06-06T00:00:00.000,90.0,Routine - Unscheduled,21982_20160606_103154,Unclean or degraded floors walls or ceilings,Low Risk,2.0,7.0,7.0,2.0,28859.0,2.0
10664,522,Boudin Sourdough Bakery,3251 20th Ave,San Francisco,CA,94132,37.728497,-122.475639,"{'longitude': '-122.475639', 'latitude': '37.728497', 'human_address': '{""address"": """", ""city"": """", ""state"": """", ""zip"": """"}'}",14155561849.0,522_20170209,2017-02-09T00:00:00.000,88.0,Routine - Unscheduled,522_20170209_103154,Unclean or degraded floors walls or ceilings,Low Risk,14.0,8.0,4.0,1.0,64.0,16.0
10671,34749,Chatz Coffee,215 02nd St,San Francisco,CA,94105,37.786529,-122.397827,"{'longitude': '-122.397827', 'latitude': '37.786529', 'human_address': '{""address"": """", ""city"": """", ""state"": """", ""zip"": """"}'}",14155420827.0,34749_20181016,2018-10-16T00:00:00.000,90.0,Routine - Unscheduled,34749_20181016_103133,Foods not protected from contamination,Moderate Risk,6.0,2.0,9.0,6.0,28855.0,8.0
10672,61856,Yoppi Yogurt,101 California St,San Francisco,CA,94111,37.793424,-122.398168,"{'longitude': '-122.398168', 'latitude': '37.793424', 'human_address': '{""address"": """", ""city"": """", ""state"": """", ""zip"": """"}'}",14155264677.0,61856_20170616,2017-06-16T00:00:00.000,94.0,Routine - Unscheduled,61856_20170616_103156,Permit license or inspection report not posted,Low Risk,6.0,1.0,10.0,4.0,28860.0,8.0
10681,3221,PASQUALES,700 IRVING St,San Francisco,CA,94122,37.764108,-122.465512,"{'longitude': '-122.465512', 'latitude': '37.764108', 'human_address': '{""address"": """", ""city"": """", ""state"": """", ""zip"": """"}'}",14155662140.0,3221_20171107,2017-11-07T00:00:00.000,88.0,Routine - Unscheduled,3221_20171107_103154,Unclean or degraded floors walls or ceilings,Low Risk,12.0,8.0,11.0,11.0,56.0,14.0
10688,19373,Las Isletas,4508 03rd St,San Francisco,CA,94124,37.737021,-122.390043,"{'longitude': '-122.390043', 'latitude': '37.737021', 'human_address': '{""address"": """", ""city"": """", ""state"": """", ""zip"": """"}'}",14155577698.0,19373_20170110,2017-01-10T00:00:00.000,63.0,Routine - Unscheduled,19373_20170110_103119,Inadequate and inaccessible handwashing facilities,Moderate Risk,1.0,3.0,8.0,10.0,58.0,1.0
10705,4630,Zanze's Cheesecake,2405 Ocean Ave,San Francisco,CA,94127,37.730139,-122.469855,"{'longitude': '-122.469855', 'latitude': '37.730139', 'human_address': '{""address"": """", ""city"": """", ""state"": """", ""zip"": """"}'}",14155332264.0,4630_20170304,2017-03-04T00:00:00.000,96.0,Routine - Unscheduled,4630_20170304_103157,Food safety certificate or food handler card not available,Low Risk,40.0,8.0,4.0,9.0,59.0,41.0
10707,33865,Nabe,1325 09th Ave,San Francisco,CA,94122,37.758941,-122.48591,"{'longitude': '-122.48591', 'latitude': '37.758941', 'human_address': '{""address"": """", ""city"": """", ""state"": """", ""zip"": """"}'}",14155732658.0,33865_20181101,2018-11-01T00:00:00.000,92.0,Routine - Unscheduled,33865_20181101_103129,Insufficient hot water or running water,Moderate Risk,35.0,8.0,3.0,1.0,56.0,35.0
10717,4716,MICHAELIS WINE & SPIRITS,2198 UNION St,San Francisco,CA,94123,37.797138,-122.435334,"{'longitude': '-122.435334', 'latitude': '37.797138', 'human_address': '{""address"": """", ""city"": """", ""state"": """", ""zip"": """"}'}",14155925700.0,4716_20170925,2017-09-25T00:00:00.000,88.0,Routine - Unscheduled,4716_20170925_103133,Foods not protected from contamination,Moderate Risk,17.0,9.0,1.0,13.0,57.0,13.0
10727,5179,Tenderloin Children's Playground,570 Ellis St,San Francisco,CA,94109,37.784564,-122.415617,"{'longitude': '-122.415617', 'latitude': '37.784564', 'human_address': '{""address"": """", ""city"": """", ""state"": """", ""zip"": """"}'}",14155292162.0,5179_20171024,2017-10-24T00:00:00.000,89.0,Routine - Unscheduled,5179_20171024_103161,Low risk vermin infestation,Low Risk,36.0,10.0,9.0,7.0,28858.0,36.0
10742,27799,Buckhorn Grill,845 Market St FE-5,San Francisco,CA,94103,37.784848,-122.406892,"{'longitude': '-122.406892', 'latitude': '37.784848', 'human_address': '{""address"": """", ""city"": """", ""state"": """", ""zip"": """"}'}",14155979770.0,27799_20181218,2018-12-18T00:00:00.000,88.0,Routine - Unscheduled,27799_20181218_103145,Improper storage of equipment utensils or linens,Low Risk,34.0,2.0,9.0,12.0,28853.0,34.0
10744,2599,HONG KONG RESTAURANT,2728 SAN BRUNO Ave,San Francisco,CA,94134,37.727159,-122.403452,"{'longitude': '-122.403452', 'latitude': '37.727159', 'human_address': '{""address"": """", ""city"": """", ""state"": """", ""zip"": """"}'}",14155461818.0,2599_20170315,2017-03-15T00:00:00.000,81.0,Routine - Unscheduled,2599_20170315_103138,Improper storage use or identification of toxic substances,Low Risk,28.0,3.0,7.0,10.0,309.0,25.0
10748,2749,TAQUERIA CANCUN,3211 MISSION St,San Francisco,CA,94110,37.745433,-122.419945,"{'longitude': '-122.419945', 'latitude': '37.745433', 'human_address': '{""address"": """", ""city"": """", ""state"": """", ""zip"": """"}'}",14155551414.0,2749_20160609,2016-06-09T00:00:00.000,89.0,Routine - Unscheduled,2749_20160609_103154,Unclean or degraded floors walls or ceilings,Low Risk,2.0,7.0,7.0,2.0,28859.0,2.0
10750,62064,California Grocery,123 Eddy St,San Francisco,CA,94102,37.784303,-122.409647,"{'longitude': '-122.409647', 'latitude': '37.784303', 'human_address': '{""address"": """", ""city"": """", ""state"": """", ""zip"": """"}'}",14155448608.0,62064_20171016,2017-10-16T00:00:00.000,92.0,Routine - Unscheduled,62064_20171016_103149,Wiping cloths not clean or properly stored or inadequate sanitizer,Low Risk,36.0,10.0,9.0,14.0,28852.0,36.0
10751,4884,LUCCA RAVIOLI CO,1100 VALENCIA St,San Francisco,CA,94110,37.755177,-122.420995,"{'longitude': '-122.420995', 'latitude': '37.755177', 'human_address': '{""address"": """", ""city"": """", ""state"": """", ""zip"": """"}'}",14155645581.0,4884_20180808,2018-08-08T00:00:00.000,87.0,Routine - Unscheduled,4884_20180808_103109,Unclean or unsanitary food contact surfaces,High Risk,19.0,4.0,5.0,2.0,28859.0,20.0
10767,39862,Trader Joe's #236,265 Winston Dr,San Francisco,CA,94132,37.726891,-122.475673,"{'longitude': '-122.475673', 'latitude': '37.726891', 'human_address': '{""address"": """", ""city"": """", ""state"": """", ""zip"": """"}'}",14155661835.0,39862_20160707,2016-07-07T00:00:00.000,90.0,Routine - Unscheduled,39862_20160707_103120,Moderate risk food holding temperature,Moderate Risk,14.0,8.0,4.0,1.0,64.0,16.0
10769,1426,SWEET DELIGHT BAKERY,4476A MISSION,San Francisco,CA,94112,37.726117,-122.433817,"{'longitude': '-122.433817', 'latitude': '37.726117', 'human_address': '{""address"": """", ""city"": """", ""state"": """", ""zip"": """"}'}",14155336786.0,1426_20171129,2017-11-29T00:00:00.000,71.0,Routine - Unscheduled,1426_20171129_103124,Inadequately cleaned or sanitized food contact surfaces,Moderate Risk,25.0,7.0,6.0,9.0,28861.0,28.0
10771,7643,PACIFIC SUPER MARKET,2900 ALEMANY Blvd,San Francisco,CA,94112,37.712148,-122.452076,"{'longitude': '-122.452076', 'latitude': '37.712148', 'human_address': '{""address"": """", ""city"": """", ""state"": """", ""zip"": """"}'}",14155331628.0,7643_20160927,2016-09-27T00:00:00.000,74.0,Routine - Unscheduled,7643_20160927_103119,Inadequate and inaccessible handwashing facilities,Moderate Risk,25.0,7.0,6.0,9.0,28861.0,28.0
10772,5855,SOTA (SCHOOL OF THE ARTS),555 Portola Dr,San Francisco,CA,94131,37.745674,-122.45085,"{'longitude': '-122.45085', 'latitude': '37.745674', 'human_address': '{""address"": """", ""city"": """", ""state"": """", ""zip"": """"}'}",14155695700.0,5855_20161102,2016-11-02T00:00:00.000,88.0,Routine - Unscheduled,5855_20161102_103150,Improper or defective plumbing,Low Risk,7.0,7.0,5.0,2.0,63.0,10.0
10773,19058,Moscone Center West - 1st Flr. Pantry,800 Howard St 1st Floor,San Francisco,CA,94103,37.783257,-122.402816,"{'longitude': '-122.402816', 'latitude': '37.783257', 'human_address': '{""address"": """", ""city"": """", ""state"": """", ""zip"": """"}'}",14155974040.0,19058_20161130,2016-11-30T00:00:00.000,96.0,Routine - Unscheduled,19058_20161130_103131,Moderate risk vermin infestation,Moderate Risk,34.0,2.0,9.0,12.0,28853.0,34.0
10774,3982,SLIM'S,333 11th St,San Francisco,CA,94103,37.771501,-122.413439,"{'longitude': '-122.413439', 'latitude': '37.771501', 'human_address': '{""address"": """", ""city"": """", ""state"": """", ""zip"": """"}'}",14155250333.0,3982_20170227,2017-02-27T00:00:00.000,94.0,Routine - Unscheduled,3982_20170227_103144,Unapproved or unmaintained equipment or utensils,Low Risk,34.0,2.0,9.0,8.0,28853.0,34.0
10779,628,EL BURRITO EXPRESS #2,1812 DIVISADERO St,San Francisco,CA,94115,37.786407,-122.440057,"{'longitude': '-122.440057', 'latitude': '37.786407', 'human_address': '{""address"": """", ""city"": """", ""state"": """", ""zip"": """"}'}",14155774246.0,628_20190109,2019-01-09T00:00:00.000,79.0,Routine - Unscheduled,628_20190109_103144,Unapproved or unmaintained equipment or utensils,Low Risk,27.0,6.0,1.0,13.0,29490.0,30.0
10800,5874,HARTE ELEMENTARY SCHOOL,1035 GILMAN Ave,San Francisco,CA,94124,37.718746,-122.389105,"{'longitude': '-122.389105', 'latitude': '37.718746', 'human_address': '{""address"": """", ""city"": """", ""state"": """", ""zip"": """"}'}",14155331520.0,5874_20190226,2019-02-26T00:00:00.000,96.0,Routine - Unscheduled,5874_20190226_103124,Inadequately cleaned or sanitized food contact surfaces,Moderate Risk,1.0,3.0,8.0,10.0,58.0,1.0
10809,1081,ARINELL PIZZA,509 VALENCIA St,San Francisco,CA,94110,37.764744,-122.421803,"{'longitude': '-122.421803', 'latitude': '37.764744', 'human_address': '{""address"": """", ""city"": """", ""state"": """", ""zip"": """"}'}",14155251303.0,1081_20190417,2019-04-17T00:00:00.000,89.0,Routine - Unscheduled,1081_20190417_103114,High risk vermin infestation,High Risk,19.0,4.0,7.0,8.0,28859.0,20.0
10811,65086,Bun Mee,2015 FILLMORE St,San Francisco,CA,94115,37.788193,-122.433714,"{'longitude': '-122.433714', 'latitude': '37.788193', 'human_address': '{""address"": """", ""city"": """", ""state"": """", ""zip"": """"}'}",14155807696.0,65086_20170228,2017-02-28T00:00:00.000,86.0,Routine - Unscheduled,65086_20170228_103145,Improper storage of equipment utensils or linens,Low Risk,27.0,9.0,1.0,13.0,29490.0,30.0
10814,2369,CLOONEY'S,1401 Valencia St,San Francisco,CA,94110,37.750374,-122.420456,"{'longitude': '-122.420456', 'latitude': '37.750374', 'human_address': '{""address"": """", ""city"": """", ""state"": """", ""zip"": """"}'}",14155824988.0,2369_20170809,2017-08-09T00:00:00.000,86.0,Routine - Unscheduled,2369_20170809_103132,Improper thawing methods,Moderate Risk,19.0,4.0,7.0,2.0,28859.0,20.0
10815,903,Sabra Restaurant,419 Grant Ave,San Francisco,CA,94108,37.790874,-122.405634,"{'longitude': '-122.405634', 'latitude': '37.790874', 'human_address': '{""address"": """", ""city"": """", ""state"": """", ""zip"": """"}'}",14155983656.0,903_20190205,2019-02-05T00:00:00.000,90.0,Routine - Unscheduled,903_20190205_103149,Wiping cloths not clean or properly stored or inadequate sanitizer,Low Risk,6.0,1.0,10.0,5.0,28857.0,8.0
10817,4643,CHEUNG HING CHINESE DELI & MEAT INC,323 Clement St,San Francisco,CA,94118,37.782993,-122.462709,"{'longitude': '-122.462709', 'latitude': '37.782993', 'human_address': '{""address"": """", ""city"": """", ""state"": """", ""zip"": """"}'}",14155754259.0,4643_20160512,2016-05-12T00:00:00.000,67.0,Routine - Unscheduled,4643_20160512_103131,Moderate risk vermin infestation,Moderate Risk,11.0,6.0,2.0,11.0,54.0,11.0
10818,5053,JAVA TRADING CO,100 5th St,San Francisco,CA,94103,37.782659,-122.406555,"{'longitude': '-122.406555', 'latitude': '37.782659', 'human_address': '{""address"": """", ""city"": """", ""state"": """", ""zip"": """"}'}",14155249723.0,5053_20170130,2017-01-30T00:00:00.000,92.0,Routine - Unscheduled,5053_20170130_103124,Inadequately cleaned or sanitized food contact surfaces,Moderate Risk,34.0,2.0,9.0,14.0,28853.0,34.0
10828,36911,Royal Market & Bakery,5331 Geary Blvd,San Francisco,CA,94121,37.780383,-122.47673,"{'longitude': '-122.47673', 'latitude': '37.780383', 'human_address': '{""address"": """", ""city"": """", ""state"": """", ""zip"": """"}'}",14155225550.0,36911_20180705,2018-07-05T00:00:00.000,94.0,Routine - Unscheduled,36911_20180705_103132,Improper thawing methods,Moderate Risk,26.0,6.0,2.0,11.0,55.0,29.0
10830,3982,SLIM'S,333 11th St,San Francisco,CA,94103,37.771501,-122.413439,"{'longitude': '-122.413439', 'latitude': '37.771501', 'human_address': '{""address"": """", ""city"": """", ""state"": """", ""zip"": """"}'}",14155250333.0,3982_20180426,2018-04-26T00:00:00.000,94.0,Routine - Unscheduled,3982_20180426_103131,Moderate risk vermin infestation,Moderate Risk,34.0,2.0,9.0,8.0,28853.0,34.0
10837,1026,PHUKET THAI RESTAURANT,248 DIVISADERO St,San Francisco,CA,94117,37.771117,-122.436976,"{'longitude': '-122.436976', 'latitude': '37.771117', 'human_address': '{""address"": """", ""city"": """", ""state"": """", ""zip"": """"}'}",14155979594.0,1026_20190410,2019-04-10T00:00:00.000,71.0,Routine - Unscheduled,1026_20190410_103144,Unapproved or unmaintained equipment or utensils,Low Risk,9.0,5.0,11.0,15.0,29492.0,3.0
10840,1354,SUSHI TIME,2275 MARKET St,San Francisco,CA,94114,37.764697,-122.432322,"{'longitude': '-122.432322', 'latitude': '37.764697', 'human_address': '{""address"": """", ""city"": """", ""state"": """", ""zip"": """"}'}",14155552280.0,1354_20190131,2019-01-31T00:00:00.000,90.0,Routine - Unscheduled,1354_20190131_103149,Wiping cloths not clean or properly stored or inadequate sanitizer,Low Risk,3.0,4.0,5.0,15.0,28862.0,5.0
10843,3862,IMPERIAL GARDEN SEAFOOD RESTAURANT,2626 SAN BRUNO Ave,San Francisco,CA,94134,37.728458,-122.403991,"{'longitude': '-122.403991', 'latitude': '37.728458', 'human_address': '{""address"": """", ""city"": """", ""state"": """", ""zip"": """"}'}",14155469666.0,3862_20170905,2017-09-05T00:00:00.000,73.0,Routine - Unscheduled,3862_20170905_103124,Inadequately cleaned or sanitized food contact surfaces,Moderate Risk,28.0,3.0,7.0,10.0,309.0,25.0
10844,744,Cafe Bellini,865 MARKET St C45,San Francisco,CA,94103,37.784317,-122.407563,"{'longitude': '-122.407563', 'latitude': '37.784317', 'human_address': '{""address"": """", ""city"": """", ""state"": """", ""zip"": """"}'}",14155341075.0,744_20170201,2017-02-01T00:00:00.000,96.0,Routine - Unscheduled,744_20170201_103145,Improper storage of equipment utensils or linens,Low Risk,34.0,2.0,9.0,12.0,28853.0,34.0
10848,5533,Leaping Lemur Cart,1  zoo rd,San Francisco,CA,94132,37.721453,-122.48629,"{'longitude': '-122.48629', 'latitude': '37.721453', 'human_address': '{""address"": """", ""city"": """", ""state"": """", ""zip"": """"}'}",14155757182.0,5533_20170815,2017-08-15T00:00:00.000,92.0,Routine - Unscheduled,5533_20170815_103125,Noncompliance with shell fish tags or display,Moderate Risk,14.0,8.0,4.0,1.0,64.0,16.0
10849,7095,ABE'S MARKET,378 FILLMORE St,San Francisco,CA,94117,37.772822,-122.430498,"{'longitude': '-122.430498', 'latitude': '37.772822', 'human_address': '{""address"": """", ""city"": """", ""state"": """", ""zip"": """"}'}",14155862576.0,7095_20171211,2017-12-11T00:00:00.000,92.0,Routine - Unscheduled,7095_20171211_103119,Inadequate and inaccessible handwashing facilities,Moderate Risk,10.0,9.0,11.0,7.0,29492.0,9.0
10853,4917,LA VICTORIA BAKERY,2937 24th St,San Francisco,CA,94110,37.752373,-122.410876,"{'longitude': '-122.410876', 'latitude': '37.752373', 'human_address': '{""address"": """", ""city"": """", ""state"": """", ""zip"": """"}'}",14155647120.0,4917_20180605,2018-06-05T00:00:00.000,69.0,Routine - Unscheduled,4917_20180605_103154,Unclean or degraded floors walls or ceilings,Low Risk,19.0,4.0,7.0,2.0,28859.0,20.0
10857,2305,TIA MARGARITA INC,300 19th Ave,San Francisco,CA,94121,37.782124,-122.478425,"{'longitude': '-122.478425', 'latitude': '37.782124', 'human_address': '{""address"": """", ""city"": """", ""state"": """", ""zip"": """"}'}",14155759274.0,2305_20181017,2018-10-17T00:00:00.000,85.0,Routine - Unscheduled,2305_20181017_103144,Unapproved or unmaintained equipment or utensils,Low Risk,26.0,6.0,2.0,11.0,55.0,29.0
10860,2085,KENTUCKY FRIED CHICKEN #249,691 EDDY St,San Francisco,CA,94109,37.783053,-122.418988,"{'longitude': '-122.418988', 'latitude': '37.783053', 'human_address': '{""address"": """", ""city"": """", ""state"": """", ""zip"": """"}'}",14155672641.0,2085_20161108,2016-11-08T00:00:00.000,78.0,Routine - Unscheduled,2085_20161108_103114,High risk vermin infestation,High Risk,36.0,9.0,9.0,7.0,28852.0,36.0
10863,69653,Izakaya Roku,1819 Market St,San Francisco,CA,94103,37.7714,-122.423887,"{'longitude': '-122.423887', 'latitude': '37.7714', 'human_address': '{""address"": """", ""city"": """", ""state"": """", ""zip"": """"}'}",14155298857.0,69653_20190405,2019-04-05T00:00:00.000,77.0,Routine - Unscheduled,69653_20190405_103132,Improper thawing methods,Moderate Risk,19.0,2.0,5.0,8.0,28853.0,20.0
10873,5841,JEFFERSON ELEMENTARY SCHOOL,1725 IRVING St,San Francisco,CA,94122,37.763543,-122.476332,"{'longitude': '-122.476332', 'latitude': '37.763543', 'human_address': '{""address"": """", ""city"": """", ""state"": """", ""zip"": """"}'}",14155752821.0,5841_20170419,2017-04-19T00:00:00.000,96.0,Routine - Unscheduled,5841_20170419_103161,Low risk vermin infestation,Low Risk,12.0,8.0,3.0,1.0,56.0,14.0
10874,64379,Piccadilly Fish & Chips,1348 Polk St,San Francisco,CA,94109,37.789299,-122.420352,"{'longitude': '-122.420352', 'latitude': '37.789299', 'human_address': '{""address"": """", ""city"": """", ""state"": """", ""zip"": """"}'}",14155776477.0,64379_20180307,2018-03-07T00:00:00.000,96.0,Routine - Unscheduled,64379_20180307_103154,Unclean or degraded floors walls or ceilings,Low Risk,21.0,9.0,10.0,13.0,28858.0,21.0
10911,64805,Andersen Bread,1390 Market St Suite 110,San Francisco,CA,94102,37.777053,-122.416939,"{'longitude': '-122.416939', 'latitude': '37.777053', 'human_address': '{""address"": """", ""city"": """", ""state"": """", ""zip"": """"}'}",14150427100.0,64805_20180330,2018-03-30T00:00:00.000,86.0,Routine - Unscheduled,64805_20180330_103127,Noncompliance with HAACP plan or variance,Moderate Risk,36.0,2.0,9.0,7.0,28852.0,36.0
10913,7747,SAFEWAY STORE #964,4950 Mission St,San Francisco,CA,94112,37.71954,-122.438775,"{'longitude': '-122.438775', 'latitude': '37.71954', 'human_address': '{""address"": """", ""city"": """", ""state"": """", ""zip"": """"}'}",14155587200.0,7747_20160609,2016-06-09T00:00:00.000,81.0,Routine - Unscheduled,7747_20160609_103103,High risk food holding temperature,High Risk,25.0,7.0,6.0,9.0,28861.0,28.0
10922,5913,ST CHARLES SCHOOL,3250 18th St,San Francisco,CA,94110,37.762074,-122.416107,"{'longitude': '-122.416107', 'latitude': '37.762074', 'human_address': '{""address"": """", ""city"": """", ""state"": """", ""zip"": """"}'}",14155867652.0,5913_20170207,2017-02-07T00:00:00.000,88.0,Routine - Unscheduled,5913_20170207_103116,Inadequate food safety knowledge or lack of certified food safety manager,Moderate Risk,19.0,4.0,7.0,8.0,28859.0,20.0
10923,4959,THAT'S IT MARKET,2699 Mission St,San Francisco,CA,94110,37.753973,-122.418576,"{'longitude': '-122.418576', 'latitude': '37.753973', 'human_address': '{""address"": """", ""city"": """", ""state"": """", ""zip"": """"}'}",14155289833.0,4959_20180718,2018-07-18T00:00:00.000,86.0,Routine - Unscheduled,4959_20180718_103120,Moderate risk food holding temperature,Moderate Risk,19.0,4.0,7.0,2.0,28859.0,20.0
10929,35882,Peet's Coffee and Tea,555 09th St Ste B5,San Francisco,CA,94103,37.774722,-122.406761,"{'longitude': '-122.406761', 'latitude': '37.774722', 'human_address': '{""address"": """", ""city"": """", ""state"": """", ""zip"": """"}'}",14155693115.0,35882_20180518,2018-05-18T00:00:00.000,96.0,Routine - Unscheduled,35882_20180518_103149,Wiping cloths not clean or properly stored or inadequate sanitizer,Low Risk,34.0,2.0,9.0,14.0,28853.0,34.0
10931,9155,STARBUCKS,350 RHODE ISLAND,San Francisco,CA,94103,37.765427,-122.402645,"{'longitude': '-122.402645', 'latitude': '37.765427', 'human_address': '{""address"": """", ""city"": """", ""state"": """", ""zip"": """"}'}",14155240256.0,9155_20190416,2019-04-16T00:00:00.000,98.0,Routine - Unscheduled,9155_20190416_103149,Wiping cloths not clean or properly stored or inadequate sanitizer,Low Risk,20.0,3.0,8.0,8.0,28853.0,4.0
10942,60544,Manzoni,2790 Diamond St,San Francisco,CA,94131,37.73473,-122.433823,"{'longitude': '-122.433823', 'latitude': '37.73473', 'human_address': '{""address"": """", ""city"": """", ""state"": """", ""zip"": """"}'}",14155332251.0,60544_20170413,2017-04-13T00:00:00.000,96.0,Routine - Unscheduled,60544_20170413_103147,Inadequate ventilation or lighting,Low Risk,7.0,7.0,5.0,2.0,63.0,10.0
10944,65624,Tacko Shop,3115 Fillmore St,San Francisco,CA,94123,37.798273,-122.435774,"{'longitude': '-122.435774', 'latitude': '37.798273', 'human_address': '{""address"": """", ""city"": """", ""state"": """", ""zip"": """"}'}",14155793534.0,65624_20180103,2018-01-03T00:00:00.000,92.0,Routine - Unscheduled,65624_20180103_103133,Foods not protected from contamination,Moderate Risk,17.0,9.0,1.0,13.0,57.0,13.0
10960,5925,ARCHBISHOP RIORDAN HIGH SCHOOL CAFE,175 PHELAN,San Francisco,CA,94112,37.727337,-122.45245,"{'longitude': '-122.45245', 'latitude': '37.727337', 'human_address': '{""address"": """", ""city"": """", ""state"": """", ""zip"": """"}'}",14155588200.0,5925_20170131,2017-01-31T00:00:00.000,90.0,Routine - Unscheduled,5925_20170131_103154,Unclean or degraded floors walls or ceilings,Low Risk,40.0,7.0,4.0,9.0,28861.0,41.0
10964,62552,Hotel Nikko SF - Banquet Prep/Service Room,"222 Mason St, 3rd Floor",San Francisco,CA,94102,37.785648,-122.409497,"{'longitude': '-122.409497', 'latitude': '37.785648', 'human_address': '{""address"": """", ""city"": """", ""state"": """", ""zip"": """"}'}",14155391111.0,62552_20161031,2016-10-31T00:00:00.000,96.0,Routine - Unscheduled,62552_20161031_103154,Unclean or degraded floors walls or ceilings,Low Risk,36.0,10.0,9.0,14.0,28852.0,36.0
10980,4957,Safeway Stores Inc #711,15 MARINA BL,San Francisco,CA,94123,37.805073,-122.433106,"{'longitude': '-122.433106', 'latitude': '37.805073', 'human_address': '{""address"": """", ""city"": """", ""state"": """", ""zip"": """"}'}",14155564946.0,4957_20160714,2016-07-14T00:00:00.000,94.0,Routine - Unscheduled,4957_20160714_103124,Inadequately cleaned or sanitized food contact surfaces,Moderate Risk,17.0,9.0,1.0,13.0,57.0,13.0
10988,2750,HAMANO SUSHI,1332 CASTRO St,San Francisco,CA,94114,37.750778,-122.434065,"{'longitude': '-122.434065', 'latitude': '37.750778', 'human_address': '{""address"": """", ""city"": """", ""state"": """", ""zip"": """"}'}",14155820825.0,2750_20160601,2016-06-01T00:00:00.000,92.0,Routine - Unscheduled,2750_20160601_103139,Improper food storage,Low Risk,22.0,4.0,5.0,2.0,28862.0,22.0
10989,253,Ann's Donut Coffee Shop,4488 Mission St,San Francisco,CA,94112,37.725949,-122.433906,"{'longitude': '-122.433906', 'latitude': '37.725949', 'human_address': '{""address"": """", ""city"": """", ""state"": """", ""zip"": """"}'}",14155331761.0,253_20160622,2016-06-22T00:00:00.000,94.0,Routine - Unscheduled,253_20160622_103133,Foods not protected from contamination,Moderate Risk,25.0,7.0,6.0,9.0,28861.0,28.0
10991,1673,RUBIN'S,101 SPEAR St,San Francisco,CA,94105,37.792577,-122.393992,"{'longitude': '-122.393992', 'latitude': '37.792577', 'human_address': '{""address"": """", ""city"": """", ""state"": """", ""zip"": """"}'}",14155971545.0,1673_20190417,2019-04-17T00:00:00.000,82.0,Routine - Unscheduled,1673_20190417_103103,High risk food holding temperature,High Risk,6.0,2.0,9.0,12.0,28855.0,8.0
10996,2725,BOBOQUIVARI'S,1450 LOMBARD St,San Francisco,CA,94123,37.801218,-122.425535,"{'longitude': '-122.425535', 'latitude': '37.801218', 'human_address': '{""address"": """", ""city"": """", ""state"": """", ""zip"": """"}'}",14155448880.0,2725_20160511,2016-05-11T00:00:00.000,90.0,Routine - Unscheduled,2725_20160511_103154,Unclean or degraded floors walls or ceilings,Low Risk,17.0,9.0,1.0,13.0,57.0,13.0
11003,7747,SAFEWAY STORE #964,4950 Mission St,San Francisco,CA,94112,37.71954,-122.438775,"{'longitude': '-122.438775', 'latitude': '37.71954', 'human_address': '{""address"": """", ""city"": """", ""state"": """", ""zip"": """"}'}",14155587200.0,7747_20161210,2016-12-10T00:00:00.000,88.0,Routine - Unscheduled,7747_20161210_103152,Unclean unmaintained or improperly constructed toilet facilities,Low Risk,25.0,7.0,6.0,9.0,28861.0,28.0
11012,1352,LA TORTILLA,495 Castro St B,San Francisco,CA,94114,37.760954,-122.434935,"{'longitude': '-122.434935', 'latitude': '37.760954', 'human_address': '{""address"": """", ""city"": """", ""state"": """", ""zip"": """"}'}",14155863990.0,1352_20180620,2018-06-20T00:00:00.000,74.0,Routine - Unscheduled,1352_20180620_103133,Foods not protected from contamination,Moderate Risk,3.0,4.0,5.0,15.0,28862.0,5.0
11019,615,J & A RESTAURANT,5712 MISSION St,San Francisco,CA,94112,37.709857,-122.449709,"{'longitude': '-122.449709', 'latitude': '37.709857', 'human_address': '{""address"": """", ""city"": """", ""state"": """", ""zip"": """"}'}",14155336688.0,615_20170608,2017-06-08T00:00:00.000,86.0,Routine - Unscheduled,615_20170608_103147,Inadequate ventilation or lighting,Low Risk,25.0,7.0,6.0,9.0,28861.0,28.0
11023,7636,LEE'S FOOD MARKET,1397 Revere Ave,San Francisco,CA,94124,37.729455,-122.386364,"{'longitude': '-122.386364', 'latitude': '37.729455', 'human_address': '{""address"": """", ""city"": """", ""state"": """", ""zip"": """"}'}",14155822818.0,7636_20161019,2016-10-19T00:00:00.000,81.0,Routine - Unscheduled,7636_20161019_103154,Unclean or degraded floors walls or ceilings,Low Risk,1.0,3.0,8.0,10.0,58.0,1.0
11027,33467,"California Pizza Kitchen, Inc.",53 03rd St,San Francisco,CA,94103,37.78678,-122.402535,"{'longitude': '-122.402535', 'latitude': '37.78678', 'human_address': '{""address"": """", ""city"": """", ""state"": """", ""zip"": """"}'}",14150345000.0,33467_20190306,2019-03-06T00:00:00.000,94.0,Routine - Unscheduled,33467_20190306_103149,Wiping cloths not clean or properly stored or inadequate sanitizer,Low Risk,6.0,2.0,9.0,12.0,28853.0,8.0
11041,3038,TURK & LARKIN DELI,476 TURK St,San Francisco,CA,94102,37.782458,-122.416873,"{'longitude': '-122.416873', 'latitude': '37.782458', 'human_address': '{""address"": """", ""city"": """", ""state"": """", ""zip"": """"}'}",14155776889.0,3038_20160620,2016-06-20T00:00:00.000,73.0,Routine - Unscheduled,3038_20160620_103124,Inadequately cleaned or sanitized food contact surfaces,Moderate Risk,36.0,10.0,9.0,7.0,28852.0,36.0
11060,1664,PANDA EXPRESS,865 MARKET St C24,San Francisco,CA,94103,37.784317,-122.407563,"{'longitude': '-122.407563', 'latitude': '37.784317', 'human_address': '{""address"": """", ""city"": """", ""state"": """", ""zip"": """"}'}",14155249775.0,1664_20171108,2017-11-08T00:00:00.000,96.0,Routine - Unscheduled,1664_20171108_103150,Improper or defective plumbing,Low Risk,34.0,2.0,9.0,12.0,28853.0,34.0
11062,1734,SAI JAI THAI,771 O'FARRELL St,San Francisco,CA,94109,37.785182,-122.417409,"{'longitude': '-122.417409', 'latitude': '37.785182', 'human_address': '{""address"": """", ""city"": """", ""state"": """", ""zip"": """"}'}",14155675774.0,1734_20190226,2019-02-26T00:00:00.000,70.0,Routine - Unscheduled,1734_20190226_103133,Foods not protected from contamination,Moderate Risk,36.0,10.0,9.0,7.0,28858.0,36.0
11075,4590,TAQUERIA CAN-CUN  RESTAURANT,1003 MARKET St,San Francisco,CA,94103,37.78215,-122.410305,"{'longitude': '-122.410305', 'latitude': '37.78215', 'human_address': '{""address"": """", ""city"": """", ""state"": """", ""zip"": """"}'}",14155866773.0,4590_20170420,2017-04-20T00:00:00.000,87.0,Routine - Unscheduled,4590_20170420_103103,High risk food holding temperature,High Risk,34.0,2.0,9.0,14.0,28853.0,34.0
11083,37090,Basil Canteen,1489 FOLSOM St,San Francisco,CA,94103,37.772008,-122.413803,"{'longitude': '-122.413803', 'latitude': '37.772008', 'human_address': '{""address"": """", ""city"": """", ""state"": """", ""zip"": """"}'}",14155553963.0,37090_20170629,2017-06-29T00:00:00.000,71.0,Routine - Unscheduled,37090_20170629_103103,High risk food holding temperature,High Risk,34.0,2.0,9.0,8.0,28853.0,34.0
11101,5025,PIZZA HUT,3349 MISSION St,San Francisco,CA,94110,37.743313,-122.421363,"{'longitude': '-122.421363', 'latitude': '37.743313', 'human_address': '{""address"": """", ""city"": """", ""state"": """", ""zip"": """"}'}",14155472600.0,5025_20160804,2016-08-04T00:00:00.000,92.0,Routine - Unscheduled,5025_20160804_103120,Moderate risk food holding temperature,Moderate Risk,2.0,7.0,7.0,2.0,28859.0,2.0
11115,4479,Courtney's Produce II,101 CASTRO St,San Francisco,CA,94114,37.767194,-122.435576,"{'longitude': '-122.435576', 'latitude': '37.767194', 'human_address': '{""address"": """", ""city"": """", ""state"": """", ""zip"": """"}'}",14155621850.0,4479_20170105,2017-01-05T00:00:00.000,92.0,Routine - Unscheduled,4479_20170105_103141,Improper food labeling or menu misrepresentation,Low Risk,3.0,5.0,5.0,15.0,28862.0,5.0
11128,3630,MAD DOG IN THE FOG,530 HAIGHT St,San Francisco,CA,94117,37.772097,-122.430814,"{'longitude': '-122.430814', 'latitude': '37.772097', 'human_address': '{""address"": """", ""city"": """", ""state"": """", ""zip"": """"}'}",14155627279.0,3630_20160630,2016-06-30T00:00:00.000,90.0,Routine - Unscheduled,3630_20160630_103158,Unpermitted food facility,Low Risk,10.0,9.0,11.0,15.0,29492.0,9.0
11129,63897,Bob's Donuts and Pastries,1621 Polk St,San Francisco,CA,94109,37.791914,-122.420984,"{'longitude': '-122.420984', 'latitude': '37.791914', 'human_address': '{""address"": """", ""city"": """", ""state"": """", ""zip"": """"}'}",14155773141.0,63897_20170919,2017-09-19T00:00:00.000,94.0,Routine - Unscheduled,63897_20170919_103154,Unclean or degraded floors walls or ceilings,Low Risk,21.0,9.0,10.0,13.0,28858.0,21.0
